hosp_id,address,latitude,longitude
SPIST000084,"Mariano Matamoros 48, Santa Martha, 78700 Matehuala, S.L.P., Mexico",23.6517219,-100.6362177
MCIMS000961,"Benito Bustamante, Calle Colon 664, Niños Heroes, 56108 Texcoco, Méx., Mexico",19.5158375,-98.891195
CHSSA001026,"Av. Río Conchos Pte. 500, Centro, 33000 Delicias, Chih., Mexico",28.1951256,-105.4770323
GRSSA008101,"Mexico 93, Santa Anita, 41304 Tlapa, Gro., Mexico",17.5394623,-98.59013139999999
CHIST000030,"Av. de las Américas 720, Ángel Trías, 31160 Chihuahua, Chih., Mexico",28.6601301,-106.0963169
GTIST000074,"Cerro del Hormiguero S/N, Maria de la Luz, 36000 Guanajuato, Gto., Mexico",21.0045143,-101.2535834
MCIMS000816,"Vertice, Progreso, 50150 Toluca de Lerdo, Méx., Mexico",19.2830392,-99.6395019
PLSSA003663,"Calle 19 Pte 3800, El Riego, México, 75764 Tehuacán, Pue., Mexico",18.4479194,-97.41949199999999
MCSDN000011,"Cocotitlán - Tepetlixpa, 56650 Temamatla, Méx., Mexico",19.187144,-98.87000069999999
GTIST000045,"Bajio de las Americas, 38014 Celaya, Gto., Mexico",20.5323006,-100.8271284
OCSSA007483,"Aldama s/n, Paraje ""El Tule, San Bartolo Coyotepec, Oaxaca, Mexico",16.9477423,-96.7134109
PLSSA016543,"calle Ini No. 7, Fetse, Colonia Fstse, 73160 Huauchinango, Pue., Mexico",20.1863093,-98.0691794
GTSSA016796,"San Carlos la Roncha, 37660 León, Gto., Mexico",21.0615918,-101.576772
MSSDN000072,"Av. Emiliano Zapata 1002, Zona Militar, 62250 Cuernavaca, Mor., Mexico",18.9643221,-99.2460905
MSIST000025,"Centro, Intrépidos Asturias y Loberas 7, Centro, 62740 Cuautla, Mor., Mexico",18.8136953,-98.9474738
GRSSA009950,"México 95 Km 2.19, 39019 Chilpancingo de los Bravo, Gro., Mexico",17.605785,-99.5202839
QTIMS000186,"Paseo Central Km. 0 + 0,600, Los Arrayanes, 76800 San Juan del Río, Qro., Mexico",20.3766106,-99.9865529
MCSDN000385,"Carretera Toluca- Tenango Km. 19.5, Paraje Rancho Sanabria, 52360 Santa María Rayón, Méx., Mexico",19.1377803,-99.59444400000001
DGSSA017872,"Blvd. José María Patoni S/N, El Ciprés, 34206 Durango, Dgo., Mexico",24.0563788,-104.6414429
VZIST000120,"Avenida Orizaba, Obrero Campesina, 91020 Xalapa-Enríquez, Ver., Mexico",19.5447535,-96.92971969999999
DFIST000196,"Felipe Ángeles, Calle Canario y, Bellavista, Álvaro Obregón, 01140 Ciudad de México, CDMX, Mexico",19.3941181,-99.1935896
GTSSA017390,"Manuel Doblado, Guanajuato, Mexico",20.75616,-101.9672364
VZSSA002965,"Av. Adolfo Ruiz Cortines 2903, Unidad Magisterial, 91020 Xalapa-Enríquez, Ver., Mexico",19.5517612,-96.93588129999999
GTSSA001454,"Carretera Guanajuato - Silao Kilómetro 6.5, Los Alcaldes, 36250 Guanajuato, Gto., Mexico",20.9807693,-101.2891448
MCIMO000093,"Carretera El Oro Villa Victoria Km 35, Santa Cruz del Rincón, 50660 San José del Rincón,, MEX, Mexico",19.6560311,-100.1214337
MCSSA005095,"Calle Insurgentes S/N, Héroes de la Independencia, 50640 San Felipe del Progreso, Méx., Mexico",19.7175751,-99.95345979999999
MCIMS000734,"Las Margaritas, 54050 Tlalnepantla de Baz, Méx., Mexico",19.5314302,-99.2224488
MCIMS000746,"Av. Gustavo Baz Prada S/N, Centro Industrial Tlalnepantla, 54000 Tlalnepantla de Baz, Méx., Mexico",19.5427472,-99.2050864
VZIMS000651,"Veracruz, Mexico",19.2601605,-96.57833869999999
HGIMS000082,"Av Francisco I. Madero 407, Nueva Francisco I Madero, Francisco I. Madero, 42070 Pachuca de Soto, Hgo., Mexico",20.115,-98.7236111
SLSSA002585,"Av. de las Américas y, Del Ferrocarril s/n, Santa Elena, 82170 Mazatlán, Sin., Mexico",23.2382756,-106.4000296
HGIST000106,"Carretera México-pachuca km 86.5, Issste, 42080 Pachuca de Soto, Hgo., Mexico",20.073212,-98.7769845
SLIST000196,"Internacional 107, Plaza San Ignacio, 82020 Mazatlán, Sin., Mexico",23.2527632,-106.4186873
DFIMS001065,"Av. Paseo de la Reforma 476, Juárez, Cuauhtémoc, 06600 Ciudad de México, CDMX, Mexico",19.4237317,-99.17334559999999
MNIST000214,"Avenida Universidad 784, Miguel Ángel de Quevedo, 58660 Zacapu, Mich., Mexico",19.8011984,-101.7950846
DFSSA002066,"Blvd. José López Portillo 386, Santa Cruz, Milpa Alta, 12000 Ciudad de México, CDMX, Mexico",19.200959,-99.01120879999999
SPIST000113,"Issste, 78280 San Luis, S.L.P., Mexico",22.1365422,-100.985646
SPSSA001102,"Av Venustiano Carranza S/N, Zona Universitaria, 78290 San Luis, S.L.P., Mexico",22.147831,-101.014596
MNIMS000494,"Salvador Allende 100, Centro, 58600 Zacapu, Mich., Mexico",19.8143296,-101.7823314
JCIST000086,"Carlos Jongitud Barrios Sn, Fovissste 100, Foviste 100, 48326 Puerto Vallarta, Jal., Mexico",20.6466206,-105.220332
HGSSA001503,"Jorge Rojo Lugo 99, Abundio Martínez, 42400 Huichapan, Hgo., Mexico",20.3754636,-99.6541642
MNSDN000010,"Militar, Apatzingán de la Constitución, Mich., Mexico",19.1036787,-102.3642861
TSIST000182,"Primavera, Av. Ejército Mexicano 1401, Los Pinos, 89137 Tampico, Tamps., Mexico",22.2521947,-97.8597464
HGIMS000111,"Tadeo de Niza, 43996 Sahagun City, Hgo., Mexico",19.7725037,-98.5709732
TSSMA000032,"Prol. Agua Dulce N/A, Petrolera, 89110 Tampico, Tamps., Mexico",22.2579405,-97.8717976
QRIST000055,"Libramiento Av. Kabah Region 93, Calle 93, Col. Centro, 77517 Cancún, Q.R., Mexico",21.165222,-86.85642949999999
HGIST000362,"Zimapan, Hgo., Mexico",20.7366982,-99.3824614
HGIST000065,"Conocido en Nith SN, El Nith,, 42320 Ixmiquilpan, Hgo., Mexico",20.4985099,-99.18096349999999
MNIMS000260,"Cipres 63, Palmas, 59380 La Piedad de Cavadas, Mich., Mexico",20.3495772,-102.042286
PLIST000101,"Av. 14 Sur 4336, Zona Sin Asignación de Nombre de Col 50, Jardines de San Manuel, 72570 Puebla, Pue., Mexico",19.020647,-98.19879379999999
DFIMS000126,"Calz. del Hueso s/n, Coapa, Sta. Úrsula Coapa, Coyoacán, 04980 Ciudad de México, CDMX, Mexico",19.3076704,-99.1312131
PLSDN000155,"Sexto Andador, Villas Perisur, 72490 Puebla, Pue., Mexico",18.9845721,-98.24991519999999
JCSDN000010,"Calz. del Ejército 100, Reforma, 44890 Guadalajara, Jal., Mexico",20.6681773,-103.3330379
NTIST000120,"Av. Paseo de la Loma 107, Fray Junípero Serra, 63169 Tepic, Nay., Mexico",21.5020317,-104.8974966
NTSDN000034,"Nayarit, Mexico",21.7513844,-104.8454619
DFSDN000074,"Calle Alberto Santos Dumont s/n, Aviación Civil, Venustiano Carranza, 15740 Ciudad de México, CDMX, Mexico",19.4196089,-99.0755009
NTSSA015302,"Sin Referencia, 63173 Tepic, Nay., Mexico",21.4792683,-104.8474216
JCIMS000330,"Av. Revolución 2735, Jardines de la Paz, 44860 Guadalajara, Jal., Mexico",20.6447422,-103.3030164
JCIMS000342,"Av. Circunvalación Agustín Yáñez 1988, Moderna, 44190 Guadalajara, Jal., Mexico",20.664165,-103.367883
DFIMS000575,"Av. Cuauhtémoc 330, Doctores, Cuauhtémoc, 06720 Ciudad de México, CDMX, Mexico",19.408374,-99.1538989
DFIMS000616,"Av. Cuauhtémoc 330, Doctores, Cuauhtémoc, 06720 Ciudad de México, CDMX, Mexico",19.408374,-99.1538989
OCIST000112,"El Marqués, Oaxaca, Mexico",16.4759818,-95.4463322
GTSSA006495,"Av. Bicentenario 801, Janicho, 38900 Salvatierra, Gto., Mexico",20.2004036,-100.9073525
GTSSA001915,"Lomas del Pedregal, 38800 Moroleón, Gto., Mexico",20.138007,-101.2230871
GTSSA017414,"Blvd. Bicentenario 20, Las Trancas, 38737 Acámbaro, Gto., Mexico",20.0476324,-100.751068
OCIMO000550,"3 de Octubre S / N, Centro, 70800 Miahuatlán de Porfirio Díaz, Oax., Mexico",16.3365417,-96.5984783
OCSDN000031,"Internacional Sn, Las Flores Sur, 68000 Oaxaca de Juárez, Oax., Mexico",17.0696446,-96.7046695
MNIST000231,"Gral. Pueblita Sur 18, Poetas, 61503 Zitácuaro, Mich., Mexico",19.4312419,-100.3474903
BSIST000043,"Cuauhtémoc, Adán G. Velarde 98, Magisterial, 23920 Santa Rosalía, B.C.S., Mexico",27.3462454,-112.2742298
BSIMS000072,"San Luis Potosí, Loma Bonita, 23940 Guerrero Negro, B.C.S., Mexico",27.966468,-114.0494829
SLIST000015,"Blvd. Antonio Rosales, Jiquilpan, 81227 Los Mochis, Sin., Mexico",25.808664,-108.9888274
MCSSA007673,"Av. Independencia 5 Ote. # 1009, Col. Reforma and FFCCCP, Residencial Colón y Col Ciprés, 50070 Toluca de Lerdo, Méx., Mexico",19.2723608,-99.656982
NTSSA000474,"Av Hidalgo Pte 500, Santo Santiago, 63940 Ixtlán del Río, Nay., Mexico",21.0370907,-104.377975
MCIST000215,"Calle Robert Fulton 1601, Delegación Sta Ana Tlapaltitlán, 50160 Toluca de Lerdo, Méx., Mexico",19.2921462,-99.62318390000002
ASSSA000614,"Venustiano Carranza No 50, Industrial, 20678 Pabellón de Arteaga, Ags., Mexico",22.1497379,-102.2796115
PLSDN000143,"Plutarco Elías Calles 3302, Militar, Valle Sur, 74290 Atlixco, Pue., Mexico",18.8947518,-98.44720079999999
OCSSA020655,"Oaxaca, Mexico",17.0542297,-96.7132304
MCSME000921,"Av Baja Velocidad 284-Km. 57.5, San Jeronimo Chicahualco, 52170 Metepec, Méx., Mexico",19.2853115,-99.5858077
PLSSA008425,"Tlaxcalancingo, Puebla, Mexico",19.0171192,-98.2658264
PLSSA008881,"Blvrd del Niño Poblano 5307, Reserva Territorial Atlixcáyotl, Concepción la Cruz, 72190 San Andrés Cholula, Pue., Mexico",19.034704,-98.24439729999999
DFSSA018166,"Encinos 41, Miguel Hidalgo 4ta Secc, Tlalpan, 14250 Ciudad de México, CDMX, Mexico",19.2719016,-99.2078045
OCIMO000335,"5 de Febrero Nº 8, Heroica, Militar, 69000 Huajuapan de León, Oax., Mexico",17.8141886,-97.7896097
OCSSA007915,"Efraín R Gómez S/N, Cuarta Sección, 4ta., 70000 Juchitán de Zaragoza, Oax., Mexico",16.4336634,-95.01323839999999
VZIST000296,"Calle 5 de Mayo 33, Zapote Gordo, 92860 Túxpam de Rodríguez Cano, Ver., Mexico",20.9522601,-97.4186888
OCSSA016764,"Carretera Ixtepec A, Chihuitán Kilómetro 2.5, Raymundo Melendez, 70110 Ixtepec, Oax., Mexico",16.5585394,-95.1180886
DFSSA003961,"Calz. de Tlalpan 4800, Belisario Domínguez Secc 16, Tlalpan, 14080 Ciudad de México, CDMX, Mexico",19.2902851,-99.1608612
SPIST000096,"Zona Centro, 79610 Rioverde, San Luis Potosi, Mexico",21.9236531,-99.98778089999999
ASSSA000404,"Blvd. Rodolfo Landeros Gallegos 440, José Landeros, 20800 Calvillo, Ags., Mexico",21.848199,-102.7033105
OCSSA000524,"Venustiano Carranza 24-1a, Alta Vista de Juárez, 69005 Huajuapan de León, Oax., Mexico",17.8116971,-97.7726924
DFSSA004060,"Av. Insurgentes Sur 3877, La Fama, Tlalpan, 14269 Ciudad de México, CDMX, Mexico",19.2901555,-99.17558280000002
GRSMA000015,"Acapulco - Aeropuerto Acapulco 1018, Icacos, 39860 Acapulco de Juárez, Gro., Mexico",16.8406597,-99.8490661
DFSSA004043,"Av. San Fernando 22, Belisario Domínguez Secc 16, Tlalpan, 14080 Ciudad de México, CDMX, Mexico",19.2891043,-99.16038759999999
DFSSA004026,"Calz. de Tlalpan 4502, Belisario Domínguez Secc 16, Tlalpan, 14080 Ciudad de México, CDMX, Mexico",19.2921736,-99.15899929999999
GRSSA012535,"Calle del Chorrillo 20, El Chorrillo, Barrio del Chorrillo, 40238 Taxco, Gro., Mexico",18.5662219,-99.6051265
GTSSA017315,"Tecolutla s/n, Bellavista, 36730 Salamanca, Gto., Mexico",20.5817423,-101.1974743
GTIMS000330,"Calle Aldama 321, Centro, 36700 Salamanca, Gto., Mexico",20.5721097,-101.2015802
DFIST000160,"Calz. Ignacio Zaragoza 1840, Juan Escutia, Iztapalapa, 09100 Ciudad de México, CDMX, Mexico",19.3891205,-99.0451855
JCSSA008080,"Calle Guzmán 415, San José del Platanar, 49650 Tamazula de Gordiano, Jal., Mexico",19.6804345,-103.2493836
DFIMS000382,"Calle Ignacio Zaragoza, Chinam Pac de Juárez, Iztapalapa, 09208 Ciudad de México, CDMX, Mexico",19.3887187,-99.04103289999999
CMSSA000125,"Blvrd Camino Real, Hospital General esquina, El Porvenir II, 28019 Colima, Col., Mexico",19.2581408,-103.6898346
MCIMS000080,"Blvrd Coacalco 81, Villa de las Flores, 55710 San Francisco Coacalco, Méx., Mexico",19.637887,-99.0985209
MCIMS000232,"Xalostoc, Urbana Ixhuatepec, 55349 Ecatepec de Morelos, Méx., Mexico",19.5266066,-99.0820469
MCIMS000244,"Av. Central N/A, Olimpica, Cd y Puerto, 55130 Ecatepec de Morelos, Méx., Mexico",19.5289807,-99.0310542
ZSIMO000820,"Pinos, Zacatecas, Zacatecas, Mexico",22.2924536,-101.5783738
GRIMS000112,"Centro, 40000 Iguala de la Independencia, Gro., Mexico",18.3467487,-99.5303996
HGIMS000135,"Rubí NO. 3, Tizayuca, 43800 Tizayuca, Hgo., Mexico",19.8226551,-98.9808125
MCIMO000105,"CARRETERA CARRETERA TOLUCA AMANALCO Km 48.5, 51260 Méx., Mexico",19.2571065,-100.0113451
MCSSA007982,"Fray Gregorio Jiménez de La Cuenca, San Antonio, 51200 Valle de Bravo, Méx., Mexico",19.2031524,-100.1356471
NLSSA004046,"Av. Adolfo López Mateos 4600, Floridos Bosques del Nogalar, 66480 San Nicolás de los Garza, N.L., Mexico",25.7140788,-100.274372
DFSDN000050,"Av Constituyentes 240, Ampliación Daniel Garza, Daniel Garza al Poniente, Miguel Hidalgo, 11840 Ciudad de México, CDMX, Mexico",19.4120468,-99.19306630000001
DFIST000090,"Av Instituto Politécnico Nacional 1669, Revolución IMSS, Gustavo A. Madero, 07300 Ciudad de México, CDMX, Mexico",19.4866732,-99.1333104
DFIMS000230,"Calz. San Juan de Aragón 29, Casas Alemán, Gustavo A. Madero, 07580 Ciudad de México, CDMX, Mexico",19.4750442,-99.08906189999999
DFIMS000225,"Av. Insurgentes Nte. 1322, Magdalena de las Salinas, Gustavo A. Madero, 07760 Ciudad de México, CDMX, Mexico",19.4830089,-99.1291559
NTSSA002166,"Luis Figueroa 115, Centro, 63300 Santiago Ixcuintla, Nay., Mexico",21.8124673,-105.2090172
DGSSA000676,"Lasalle 2, Bellavista, 35050 Gómez Palacio, Dgo., Mexico",25.5601879,-103.5074639
NLSMP000023,"Av. Ignacio Morones Prieto 3000, Los Doctores, 64710 Monterrey, N.L., Mexico",25.6684449,-100.3515484
JCSMP000313,"Calz. Lázaro Cárdenas 4149, Jardín de San Ignacio, 45040 Zapopan, Jal., Mexico",20.6724967,-103.4091161
DFIST000534,"Lago Ontario 36, Tacuba, Miguel Hidalgo, 11410 Ciudad de México, CDMX, Mexico",19.4543785,-99.1913328
JCSDN000034,"Av. Industria Militar, Gral. Ildefonso Vázquez &, Militar, Miguel Hidalgo, 11200 Ciudad de México, CDMX, Mexico",19.4373309,-99.2158807
DFSDN000086,"Periférico Blvrd Manuel Ávila Camacho s/n, Militar, Miguel Hidalgo, 11200 Ciudad de México, CDMX, Mexico",19.4373709,-99.216054
VZIST000062,"Náhuatl 20, Fovissste, 96537 Coatzacoalcos, Ver., Mexico",18.1454847,-94.4847393
NLSMP001085,"Calle Ecuador No. 2331, Balcones de Galerías, 64620 Monterrey, N.L., Mexico",25.6846668,-100.3562807
NLIMS000373,"Obrera, Centro, 64010 Monterrey, N.L., Mexico",25.6700946,-100.2958158
DFIST000324,"Av. Revolución 1182, San José Insurgentes, Benito Juárez, 03900 Ciudad de México, CDMX, Mexico",19.3636024,-99.18860839999999
NLSDN000012,"Av. Manuel L. Barragán 5000, Niños Héroes, Regina, 64290 Monterrey, N.L., Mexico",25.7205593,-100.3131316
YNSSA000565,"Avenida Itzaes s/n x Av Centro Jacinto Canek, Centro, 97000 Mérida, Yuc., Mexico",20.9746488,-89.6416204
YNSSA013423,"C. 22, Col. Altabrisa, 97133 Mérida, Yuc., Mexico",21.020154,-89.58241439999999
MNIST000226,"Issste, 59688 Zamora de Hidalgo, Mich., Mexico",19.9730962,-102.2869849
MNIST000185,"Salustio Amezcua, Noria de Montes, 59099 Sahuayo de Morelos, Mich., Mexico",20.0507836,-102.7167417
CSSSA009483,"San Cristobal de las Casas, Chis., Mexico",16.7370359,-92.6376186
DFIMS000534,"Calle Gabriel Mancera 222, Col del Valle Nte, Benito Juárez, 03103 Ciudad de México, CDMX, Mexico",19.3956289,-99.16165339999999
MCIMS001171,"Av. Paseo de la Reforma 476, Juárez, Cuauhtémoc, 06600 Ciudad de México, CDMX, Mexico",19.4237317,-99.17334559999999
DFSSA003722,"Cecilio Robelo S/N, El Parque, Venustiano Carranza, 15970 Ciudad de México, CDMX, Mexico",19.4241718,-99.1154142
GTIMS000185,"2, Irapuato, Gto., Mexico",20.6762505,-101.3751149
GTSSA001652,"Reverte Mexicano Guerrero No. 1959, Fracc, Viveros Revolucion, 36520 Irapuato, Gto., Mexico",20.6863236,-101.3577201
GTSDN000010,"Blvrd Paseo Solidaridad 5675, Sin Nombre, 36545 Irapuato, Gto., Mexico",20.6659435,-101.3288188
TSIST000071,"Cll Canales 103, Lázaro Cárdenas, 87410 Heroica Matamoros, Tamps., Mexico",25.8683932,-97.4929205
GTSSA001290,"Carr Xoconoxtle 750, 37800 Dolores Hidalgo Cuna de la Independencia Nacional, Gto., Mexico",21.1338965,-100.9326034
MCIST000425,"Calle Ciruelos 4, Lázaro Cárdenas, 54916 Tultitlán de Mariano Escobedo, Méx., Mexico",19.6288145,-99.163413
DFIMS000032,"Av. Reforma 6, Centro de Azcapotzalco, Azcapotzalco, 02000 Ciudad de México, CDMX, Mexico",19.4808166,-99.18770549999999
DFIMS000056,"Av. Paseo de la Reforma 476, Juárez, Cuauhtémoc, 06600 Ciudad de México, CDMX, Mexico",19.4237317,-99.17334559999999
DFIMS000831,"Elpidio Cortez 300, San Pedro Xalpa, Azcapotzalco, 02750 Ciudad de México, CDMX, Mexico",19.4815348,-99.2131364
GTSSA001623,"20°21'24. 101°28'54., Av Sexta 3, Santa Cruz Meyehualco, México, Gto., Mexico",20.356844,-101.481747
DFPMX000012,"Campo Matillas 52, San Antonio, Azcapotzalco, 02720 Ciudad de México, CDMX, Mexico",19.479894,-99.200873
MNIST000202,"Uruapan del Progreso, 60134 Uruapan, Mich., Mexico",19.4129118,-102.0238152
MNIMO001796,"Av. 20 de Noviembre s/n, Villa Artesanal, 60250 Paracho de Verduzco, Mich., Mexico",19.6368759,-102.0540806
MCSSA018786,"Carr Federal México-Puebla Km. 34.5, Zoquiapan, 56530 Ixtapaluca, Méx., Mexico",19.3187976,-98.8553736
GTIST000091,"Calle Cholula 305, Azteca, 37520 León, Gto., Mexico",21.0984408,-101.6495742
HGIMS000164,"Calz Melchor Ocampo NO. 106, Centro, 42800 Tula de Allende, Hgo., Mexico",20.0538621,-99.3380414
GTSSA002101,"Paseo de La Presa 99, Barrio de la Presa, Guanajuato, Gto., Mexico",21.003324,-101.2437346
DFIMS000464,"Tizapán, Tizapán San Ángel, Progreso Tizapán, Álvaro Obregón, 01090 Ciudad de México, CDMX, Mexico",19.3369724,-99.20033439999999
DFIST000312,"Morelos, Venustiano Carranza, 15270 Mexico City, CDMX, Mexico",19.4421625,-99.11605449999999
MSIST000305,"Av. Domingo Diez S/N, Lomas de la Selva, 62270 Cuernavaca, Mor., Mexico",18.9358982,-99.2335442
PLIMS000043,"CARRETERA ATLIXCO, Metepec Centro, 74360 METEPEC, Pue., Mexico",18.931874,-98.4711241
PLSME000353,"Puebla, Mexico",19.0412894,-98.20620129999999
DFSSA018154,"Av. la Turba 655, Villa Centroamericana I, Tláhuac, 13250 Ciudad de México, CDMX, Mexico",19.2874486,-99.05270569999999
HGSSA018000,"La Villita, 43760 Hgo., Mexico",20.0613024,-98.44117229999999
DFIMS000814,"Calz. de las Bombas 117, Coapa, Girasoles I, Tlalpan, 14310 Ciudad de México, CDMX, Mexico",19.3091272,-99.1297306
DFIMS000312,"Añil 144, Granjas México, Iztacalco, 08400 Ciudad de México, CDMX, Mexico",19.4053733,-99.11287370000001
DFIMS000826,"Av. Tlahuac No 5662, Los Olivos, Tláhuac, 13360 Ciudad de México, CDMX, Mexico",19.3058833,-99.0597027
MCIMS000326,"Av Dr Gustavo Baz Sur 28, Naucalpan Centro, 53000 Naucalpan de Juárez, Méx., Mexico",19.4702108,-99.2341955
PLSSA015230,"Nuevo Laredo, Estación Nueva, 72200 Puebla, Pue., Mexico",19.0790159,-98.1847669
VZSDN000162,"Veracruz, Mexico",19.2601605,-96.57833869999999
MCSSA014143,"Avenida Licenciado Benito Juarez CARRETERA MÉXICO TULANCINGO, 55940 Axapusco, Méx., Mexico",19.7327812,-98.76944499999999
CLSSA002763,"Bulevar Centenario 901, Ejido Villa de Fuente, 26090 Piedras Negras, Coah., Mexico",28.6612235,-100.5406794
MSIMS000235,"Zacatepec de Hidalgo, Morelos, Mexico",18.6590633,-99.1954432
DFIMS000365,"Campaña del Ébano s/n, U.H. Vicente Guerrero, Iztapalapa, 09200 Ciudad de México, CDMX, Mexico",19.3575459,-99.0542583
TSIMS000276,"Calle Victoria &, Av. Reynosa N/A, Sector Centro, 88000 Nuevo Laredo, Tamps., Mexico",27.4966723,-99.50511859999999
VZSSA004744,"Calle 16 Ote., Laredo, 93260 Poza Rica de Hidalgo, Ver., Mexico",20.5299878,-97.459234
PLIMS000586,"Blvd. Municipio Libre, INFONAVIT la Margarita, Puebla, Pue., Mexico",19.0084155,-98.1827702
MNIST000120,"Trabajadores de Agricultura 285, Lomas de Santiaguito, 58120 Morelia, Mich., Mexico",19.7275321,-101.1808281
GRIST000153,"Heroico Colegio Militar 3, Centro, 40000 Iguala de la Independencia, Gro., Mexico",18.3409555,-99.52763139999999
GTSSA017344,"Cuitzeo De Los Naranjos 103, Peña Guisa, 36970 Abasolo, Gto., Mexico",20.4393186,-101.5469741
GRSSA010061,"De la Juventud SN-O, Vicente Guerrero, 40700 Coyuca de Catalán, Gro., Mexico",18.3346344,-100.7122989
DFSSA001540,"Reforma Aeronáutica 3018, Reforma Política, Iztapalapa, 09730 Iztapalapa, CDMX, Mexico",19.343323,-99.0273498
DFIMS000621,"Tlatelolco, Cuauhtémoc, 06900 Mexico City, CDMX, Mexico",19.4546956,-99.1393035
DFIMS000324,"Eje 4 Sur, Av. Pdte. Plutarco Elías Calles 473, Santa Anita, Iztacalco, 08300 Ciudad de México, CDMX, Mexico",19.3986738,-99.1174278
DFSDN000115,"San Andrés Totoltepec, Tlalpan, 14400 Mexico City, CDMX, Mexico",19.2646042,-99.1529789
NLIMS000204,"C. Mariano Matamoros 300, Centro de Guadalupe, 67100 Guadalupe, N.L., Mexico",25.6731688,-100.2614015
PLSSA008572,"Carretera Mexico-Oaxaca S/n, La Palma, 74940 Acatlán, Pue., Mexico",18.1857629,-98.0564612
DFIMS000522,"Municipio Libre 270, Portales Nte, Benito Juárez, 03300 Ciudad de México, CDMX, Mexico",19.3696537,-99.1558374
PLSSA008485,"Arias N, A, 73800 Teziutlán, Pue., Mexico",19.8220076,-97.37660419999999
MCIMS000145,"Av. Cuauhtémoc Ote. 26, Santiaguito, 56600 Chalco de Díaz Covarrubias, Méx., Mexico",19.2597425,-98.8933682
GTIMS000506,"Hacienda Silao, Sin Colonia, 36100 Silao de La Victoria, Gto., Mexico",20.9469006,-101.4106727
MCIMS000874,"Av. la Quebrada, Sta Maria Guadalupe, 54769 Cuautitlán Izcalli, Méx., Mexico",19.5973466,-99.18840499999999
GTIMS000062,"Mutualismo & Río Lerma SN, Centro, 38060 Celaya, Gto., Mexico",20.5185759,-100.8239398
MCSSA001636,"Alfonso Reyes, Paseos de Sta Maria, 54800 Cuautitlán, Méx., Mexico",19.6644447,-99.17856739999999
GTSSA003151,"Calle Acacia S/N, Col. Campo Verde, Zona Centro, 36200 Romita, Gto., Mexico",20.870823,-101.5230782
MCSSA010251,"Boulevar Turistico Ixtapan De La Sal-Tonatico E N/A, 51900 Ixtapan de la Sal, Méx., Mexico",18.8188111,-99.66811890000001
CSIST000251,"16°44'54. 93°04'29., Av Cuatro 3""N, San Pedro, Tuxtla Gutiérrez, Chis., Mexico",16.7484144,-93.0748184
MNIMO000244,"Lázaro Cárdenas, Centro, 61830 Ario de Rosales, Mich., Mexico",19.210401,-101.7117407
VZIMS000564,"Nicolás Bravo, Zona Centro, Centro, 91000 Xalapa-Enríquez, Ver., Mexico",19.5222791,-96.9209053
GTSSA002760,"Prolongacion Degollado s/n, Las Americas, 36904 Pénjamo, Gto., Mexico",20.4336339,-101.7070448
DFSSA003162,"Av. México Coyoacán S/N, Gral Anaya, Benito Juárez, 03340 Ciudad de México, CDMX, Mexico",19.3602817,-99.16228319999999
MCIMS000676,"Carr Federal México-Puebla Km 17.5, Villa de la Paz, Rincon de los Reyes, 56400 Los Reyes Acaquilpan, Méx., Mexico",19.3568168,-98.9910129
MCSME000781,"Ing. Luis Galindo Ruiz 21, 50450 Atlacomulco, Méx., Mexico",19.790644,-99.8743009
GTSSA016842,"Jose Vasconcelos 101, Zona Centro, 38240 Santa Cruz de Juventino Rosas, Gto., Mexico",20.6412014,-100.9847992
OCIMO003304,"Oaxaca, Mexico",17.0542297,-96.7132304
TSIST000100,"Calle Nicolás Bravo s/n, Ferrocarril Zona Centro, 88500 Reynosa, Tamps., Mexico",26.0885126,-98.2850909
GTSSA005432,"Valencia 10, Los Veneros, 36400 Purísima de Bustos, Gto., Mexico",21.0395607,-101.873003
MCIMS001200,"Av. Paseo de la Reforma 476, Juárez, Cuauhtémoc, 06600 Ciudad de México, CDMX, Mexico",19.4237317,-99.17334559999999
DFSSA004970,"Av. del Conscripto 311, Lomas de Sotelo, Hipódromo de las Américas, Miguel Hidalgo, 11200 Ciudad de México, CDMX, Mexico",19.4404945,-99.22389220000001
HGSSA002570,"Av Francisco I. Madero 405, Guadalupe, 42050 Pachuca de Soto, Hgo., Mexico",20.1178575,-98.7303713
HGIMS000123,"Tepeji del Río de Ocampo, Noxtongo 2da, 42855 Tepeji del Rio de Ocampo, Hgo., Mexico",19.9085278,-99.33957649999999
MCSSA006430,"Dr. Genaro Díaz Manon, La Trinidad, 52436 Tenancingo de Degollado, Méx., Mexico",18.9613853,-99.5863244
HGIMS000181,"Vicente Guerrero SN, Insurgentes, Centro Periferia, 43600 Tulancingo de Bravo, Hgo., Mexico",20.091223,-98.3687514
GTSSA005613,"blvar. aristoteles con de las, Márquez, San Juan Joya, México, Méx., Mexico",21.1421278,-101.7669636
DFSSA003553,"Calle Salvador Díaz Mirón 344, Un Hogar Para Nosotros, Miguel Hidalgo, 11340 Ciudad de México, CDMX, Mexico",19.4513951,-99.1695639
DFIMS000196,"Del IMSS, Magdalena de las Salinas, 07760 Ciudad de México, CDMX, Mexico",19.4830763,-99.1478751
NLSMP000064,"15 de Mayo 1822, Maria Luisa, Nuevo Obispado, 64040 Monterrey, N.L., Mexico",25.6744099,-100.3375922
JCIMS000366,"Calle San Felipe 1014, Villaseñor, 44100 Guadalajara, Jal., Mexico",20.6796886,-103.3607706
JCIMS000301,"Oblatos, 44700 Guadalajara, Jal., Mexico",20.6747187,-103.3255216
PLSSA016806,"Camino Blanco 5, Piaxtla, 74400 Izúcar de Matamoros, Pue., Mexico",18.5907953,-98.4514615
MNIST000016,"Filomeno Mata 117, Buenos Aires, 60610 Apatzingán de la Constitución, Mich., Mexico",19.1013453,-102.3628454
PLSSA009283,"Prol. Zaragoza 309, Mi Ranchito, 73080 Col San Isidro, Pue., Mexico",20.2565802,-97.96502989999999
GTSSA017426,"Del Trabajo 601, Las Flores, 38470 Jaral del Progreso, Gto., Mexico",20.3792773,-101.0671877
SPSSA000945,"San Ciro De Acosta - Rioverde S/N, Centro, 79610 Rioverde, S.L.P., Mexico",21.9197222,-99.99177929999999
GRSSA005762,"Carretera Ometepec-Acapulco Km. 2.5, Campo Aéreo, Sin Nombre, 41700 Ometepec, Gro., Mexico",16.6888581,-98.43338010000001
DFSMA000010,"Av. H. Escuela Naval Militar 745, Coapa, Presidentes Ejidales 1ra Secc, Coyoacán, 04470 Ciudad de México, CDMX, Mexico",19.3240114,-99.12523259999999
NTIMS000190,"De Los Insurgentes Pte. 727, IMSS, 63120 Tepic, Nay., Mexico",21.5134197,-104.9106094
GTSSA004003,"Carretera A Pozos Km 18, El Quijay, 37900 San Luis de la Paz, Gto., Mexico",21.2793237,-100.4958952
SPSSA003482,"Av Venustiano Carranza S/N, Zona Universitaria, 78290 San Luis, S.L.P., Mexico",22.147831,-101.014596
HGSSA002430,"Pachuca-tulancingo 101, Nueva Francisco I Madero, La Hacienda, 42070 Pachuca de Soto, Hgo., Mexico",20.1139034,-98.72278589999999
JCIMS000803,"Simon Bolívar 200, Rosal, 45300 Tala, Jal., Mexico",20.652543,-103.7080568
NLSMP000810,"Ruperto Martínez 1203, Centro, 64000 Monterrey, N.L., Mexico",25.6784888,-100.3247867
PLSSA009001,"16 de Septiembre, Tercero, Tercer Barrio, 74160 Huejotzingo, Pue., Mexico",19.1589971,-98.40861369999999
SPIMS000376,"Tangamanga No. 205, Prados de San Vicente 2da Secc, 78397 San Luis, S.L.P., Mexico",22.1341213,-100.9221631
MCIMS000990,"Sta Maria Tulpetlac, 55400 Ecatepec de Morelos, Méx., Mexico",19.5694876,-99.0439291
NLSSA005002,"Joaquín A. Gallo 2110, Ferrocarrilera, 64250 Monterrey, N.L., Mexico",25.7254555,-100.3360371
PLIMS000405,"18 Pte. s/n, San Nicolás Tetitzintla, 75710 Tehuacán, Pue., Mexico",18.4754785,-97.3952403
MSSSA000961,"Av. Universidad S/N, Centro, El Paraiso, 62900 Jojutla de Juárez, Mor., Mexico",18.6179782,-99.19069929999999
MNIST000144,"Humildad 43, La Ilusion, 61605 Pátzcuaro, Mich., Mexico",19.5041115,-101.6207949
VZIST000173,"De las Gardenias 51, El Espinal, 94330 Orizaba, Ver., Mexico",18.8687072,-97.0963147
MCSSA002872,"Carretera Ixtlahuaca-Jiquipilco km. 1, San Pedro, 50740 Ixtlahuaca de Rayón, Méx., Mexico",19.5698715,-99.7557994
MCSSA010222,"Av San Juan s/n, Delegación San Lorenzo Tepaltitlán I, Delegación San Lorenzo Tepaltitlán, 50010 Toluca de Lerdo, Méx., Mexico",19.3207538,-99.63329859999999
VZIMS000634,"Juan De La Luz Enríquez Esq. Ocampo S/N, Centro, 95280 Lerdo de Tejada, Ver., Mexico",18.6329964,-95.5235106
NLIMS000356,"Fortunato Lozano 2622, Benito Juárez, 64218 Monterrey, N.L., Mexico",25.7011379,-100.3366311
DFIMS000020,"Av. Paseo de la Reforma 476, Juárez, Cuauhtémoc, 06600 Ciudad de México, CDMX, Mexico",19.4237317,-99.17334559999999
DFIMS000061,"Av. Paseo de la Reforma 476, Juárez, Cuauhtémoc, 06600 Ciudad de México, CDMX, Mexico",19.4237317,-99.17334559999999
DFSDN000062,"Av. Industria Militar 1057, Lomas de Sotelo, Hipódromo de las Américas, Miguel Hidalgo, 11200 Ciudad de México, CDMX, Mexico",19.4394092,-99.21859820000002
JCIMS000103,"Calle Jaime Llamas, Centro, 48900 Autlán de Navarro, Jal., Mexico",19.772185,-104.3599161
GRIMS000100,"Av. Ignacio Ramírez 64, Centro, Chilpancingo de los Bravo, Gro., Mexico",17.5472759,-99.49882620000001
MSSSA000466,"Av. Domingo Diez S/N, Lomas de la Selva, 62270 Cuernavaca, Mor., Mexico",18.9358982,-99.2335442
MCSDN000390,"6/o. Batallón de Fuerzas Especiales, Estado de México SEDENA, MX",Na,NA
NLSSA004944,"Amel Barocio S/N, Zaragoza, 67530 Montemorelos, N.L., Mexico",25.1833471,-99.83522889999999
SPIMS000183,"Av. Nicolas Zapata NO. 203, De Tequisquiapan, 78000 San Luis, S.L.P., Mexico",22.154288,-100.984421
QTIMS000092,"Av. 5 de Febrero, Calle Ignacio Zaragoza y, Centro, 76000 Santiago de Querétaro, Qro., Mexico",20.5823369,-100.4055652
DFSDN000120,"6o. Andador, Coapa, Culhuacan CTM VI, 04480 Ciudad de México, CDMX, Mexico",19.3267012,-99.1158038
GRSSA004490,"Revolución, Chapultepec, 40010 Iguala de la Independencia, Gro., Mexico",18.3608296,-99.5561745
JCIMS000651,"Florida, 47820 Ocotlán, Jal., Mexico",20.355484,-102.7754715
PLSSA002490,"Antiguo Camino a, Col Agua Santa, Guadalupe Hidalgo, 11350 Puebla, Pue., Mexico",19.033515,-98.19552329999999
QTIMS000285,"Cto. Universidades, 76269 Santiago de Querétaro, Qro., Mexico",20.6461638,-100.3346947
GRSDN000026,"Calle Campo Militar 35, Progreso, 39050 Chilpancingo de los Bravo, Gro., Mexico",17.5460428,-99.5052084
PLSSA009292,"Puebla-matamoros o, Puebla-Matamoros LB, Atlixco, Pue., Mexico",18.9026572,-98.415797
GTSSA000310,"Av. 1 De Mayo N° 7, Fracc, Ignacio Ramirez, 37748 San Miguel de Allende, Gto., Mexico",20.908547,-100.7198593
HGSSA015532,"Carretera Tula -Tepeji Km 1.5, El Carmen, Jalpa, 42830 Tula de Allende, Hgo., Mexico",20.0404674,-99.3425503
GTIMS000243,"Coral 101, Independencia, 37380 León, Gto., Mexico",21.1086107,-101.6879209
BSIMS000113,"5 de Febrero SN, Pueblo Nuevo, 23060 La Paz, B.C.S., Mexico",24.1453114,-110.318159
OCPMX000010,"Interior Disponible, Ampliación Petrolera, Salina Cruz Centro S/N, Ampliacion Petrolera, 70600 Salina Cruz, Oax., Mexico",16.2018324,-95.1930729
GTSSA005502,"Mariano Matamoros 20, Zona Centro, 38200 Comonfort, Gto., Mexico",20.7178748,-100.7622248
MSIMS000054,"Cuernavaca, Morelos, Mexico",18.9242095,-99.22156590000002
NLSSA004985,"Teófilo Salinas Garza 626, Real de San José 2 Sector, 67250 Juárez, N.L., Mexico",25.6538811,-100.081967
VZIMS000832,"Calle Reforma 11-15, Laredo, 93260 Poza Rica de Hidalgo, Ver., Mexico",20.5223286,-97.4537859
DFSSA004265,"Av. Tlahuac 4866, San Lorenzo Tezonco, Iztapalapa, Ciudad de México, CDMX, Mexico",19.3071537,-99.0653646
JCIST000045,"ISSSTE, 49089 Cd Guzman, Jal., Mexico",19.6924391,-103.4565958
MCIMS001185,"Bosques de Metepec, Llano Grande, 52148 Metepec, Méx., Mexico",19.2467497,-99.57687279999999
VZIMS001124,"Prol. Av. Salvador Díaz Mirón s/n, Pastora, Floresta, 91940 Veracruz, Ver., Mexico",19.1563124,-96.1313203
CLIST000106,"Francisco Murguía N° 405 esq, Calle Gral. Manuel Pérez Treviño Centro, Zona Centro, 25000 Saltillo, Coah., Mexico",25.4300845,-101.01188
CHSSA000676,"Av. Prolongación Teófilo Borunda Número 510, Colonia, El Bajo, 31200 Chihuahua, Chih., Mexico",28.6493104,-106.0699118
NLIMS000361,"Av. Félix U. Gómez, Centro, 64000 Monterrey, N.L., Mexico",25.6715121,-100.2980706
ZSIST000160,"Blvd. Adolfo López Mateos S/N, Zacatecas Centro, 98000 Zacatecas, Zac., Mexico",22.765009,-102.5770478
OCSSA007693,"Efraín R Gómez S/N, Cuarta Sección, 4ta., 70000 Juchitán de Zaragoza, Oax., Mexico",16.4336634,-95.01323839999999
BSIST000330,"Calle Mar Caribe s/n, El Conchalito, Bahía de la Paz, 23090 La Paz, BC, Mexico",24.137896,-110.3412989
JCSSA003583,"Calle Francisco I. Madero 299, Centro, 46901 Mascota, Jal., Mexico",20.523917,-104.7796179
NLIMS000525,"Av, Calle Benito Juarez s/n, Iturbide, 66420 San Nicolás de los Garza, N.L., Mexico",25.7526739,-100.2979408
PLIMO000551,"Centenario, La Conchita, 73560 Cd de Cuetzalan, Pue., Mexico",20.015966,-97.52413270000001
JCIMS001264,"Al Puesto 3486, El Tepeyac 2a. Secc, 47425 Lagos de Moreno, Jal., Mexico",21.377725,-101.9202998
SPIST000055,"Frontera 1509, Altavista, 79050 Cd Valles, S.L.P., Mexico",21.9937883,-99.0040882
DFPMX000024,"Anillo Perif. 4091, Fuentes del Pedregal, Tlalpan, 14140 Ciudad de México, CDMX, Mexico",19.3087408,-99.218739
PLIST000072,"Av. de los Técnicos S/N, Rancho Viejo, 73160 Huauchinango, Pue., Mexico",20.1862612,-98.06722099999999
GTIST000086,"Paseo de La Ribera 275, Las Trojes, 36640 Irapuato, Gto., Mexico",20.6881717,-101.367051
MCSME000752,"Carr. Tenancingo - Zumpahuacán Sn, Ejercito de los Trabajadores, 52400 Tenancingo de Degollado, Méx., Mexico",18.9613407,-99.59107379999999
GRSMM000024,"Iguala, Guerrero, Mexico",18.3448477,-99.5397344
TLIMS000030,"Apizaco, Tlaxcala, Mexico",19.415881,-98.1393179
NLHUN000014,"Dr. José Eleuterio González (Gonzalitos) S/N, Mitras Centro, 64460 Monterrey, N.L., Mexico",25.6887861,-100.3500984
PLIMS000200,"Calle 2 Nte 2004, Centro, 72000 Puebla, Pue., Mexico",19.0511741,-98.19185379999999
BCSSA000015,"México 1 KM 111, Carlos Pacheco, Loma Dorada, 22847 Ensenada, B.C., Mexico",31.824932,-116.6002547
SPIMO000732,"Ignacio Ramírez 07, Centro, 78700 Matehuala, S.L.P., Mexico",23.6547079,-100.6401611
TCSME000011,"C. Ceiba 120, Primero de Mayo, 86190 Villahermosa, Tab., Mexico",17.9805055,-92.9365778
MNIMS000021,"México 120 2, Miguel Hidalgo, 60670 Apatzingán de la Constitución, Mich., Mexico",19.0789138,-102.3564019
GTSSA005753,"Blvd. Adolfo López Mateos S/N, Los Paraisos, 37320 León, Gto., Mexico",21.1380631,-101.687201
JCIMS000914,"Cto. Interior S S Juan Pablo II 100, Las Calles de Alcala, Tepatitlán de Morelos, Jal., Mexico",20.8412245,-102.7455367
TLSSA017925,"Av Benito Juárez Sur N, La Concordia, 90710 Santo Tomas la Concordia, Tlax., Mexico",19.2241291,-98.3173856
DFIMS000546,"Calle Gabriel Mancera 800 ESQ. SAN BORJA ENTRE EJE 6 SUR, Angel Urraza, Col del Valle Centro, Benito Juárez, 03100 Ciudad de México, CDMX, Mexico",19.384021,-99.1652919
SPSSA017313,"Av. Valentin Amador, San Francisco, 78435 Soledad de Graciano Sánchez, S.L.P., Mexico",22.1645739,-100.9382737
SRSSA006261,"Calle 1 N/A, 83600 Caborca, Son., Mexico",30.704495,-112.1794904
VZPMX000071,"MIGUEL ANGEL DE QUEVEDO S/N, Raz y Guzmán ESQ, Quinta María, 91859 Veracruz, Ver., Mexico",19.1984989,-96.157935
SRSME000023,"Norte, Urb. No. 4, 85000 Cd Obregón, Son., Mexico",27.5065115,-109.931865
VZIMS001071,"Túxpam de Rodríguez Cano, Ver., Mexico",20.9561149,-97.40633509999999
NLPMX000015,"Álvaro Obregón s\n, Adolfo López Mateos, López Mateos 2do Sector, 67485 Cadereyta Jiménez, N.L., Mexico",25.5749277,-100.0105404
VZSSA006972,"Av 20 de Noviembre 1074, Centro, 91700 Veracruz, Ver., Mexico",19.1855767,-96.1321694
HGSSA005056,"Actopan, Hgo., Mexico",20.2743499,-98.95213570000001
SLIMS000271,"Blvrd 16 de Septiembre S/N, Centro, 81000 Guasave, Sin., Mexico",25.5695988,-108.4626941
TLIST000042,"Ocotlán Chiautempan 120, San Gabriel Cuauhtla, 90117 San Gabriel Cuauhtla, Tlax., Mexico",19.3106921,-98.2365404
SRIMS000145,"Calle Vicente Guerrero 2165, Cajeme, 85130 Cd Obregón, Son., Mexico",27.4951244,-109.9628139
SLIST000085,"Culiacán-Mazatlán 957, 9na Zona Militar, 80230 Culiacán Rosales, Sin., Mexico",24.7960755,-107.3757997
TLIMS000136,"Av. Universidad sin número, La Loma Xicohtencatl, 90000 Tlaxcala de Xicohténcatl, Tlax., Mexico",19.2984503,-98.2470434
GTIMS000564,"de Rancheria, Blvd. Juan Alonso de Torres Pte. 2125, San Miguel, 37268 León, Gto., Mexico",21.1358875,-101.6225185
VZSSA006815,"Álvaro Obregón 13, Centro, 92800 Tuxpam, Ver., Mexico",20.9515053,-97.4001605
GRSSA009945,"Carr. Fed. México - Acapulco Lt. 1 - 2, Los Mangos (El Quemado, 39910 Acapulco de Juárez, Gro., Mexico",16.9309572,-99.8203276
HGSSA015515,"Libramiento Prolongacion Calle Miguel Hidalgo s/n, Ampliacion San Rafael, 43900 Apan, Hgo., Mexico",19.7136345,-98.4650793
QTIST000046,"Conocido, El Carrizalito, 76300 Pinal de Amoles, Qro., Mexico",21.093224,-99.49825899999999
SRIST000133,"Jose Maria Morelos Esq, Av. Jesús Siqueiros N/A, Loma Linda, 83190 Hermosillo, Son., Mexico",29.1101881,-110.9507359
MCSSA010053,"Av Reforma s/n, Vista Hermosa, 54240 Jilotepec de Molina Enríquez, Méx., Mexico",19.954779,-99.5471781
JCIMS000371,"Calz. Lázaro Cárdenas 2063, 8 de Julio, 44910 Guadalajara, Jal., Mexico",20.6475601,-103.3601099
OCIST000240,"A Collantes SN, Barrio del Zapote, 71607 Pinotepa Nacional, Oax., Mexico",16.3318963,-98.0472752
SRSSA001612,"García Morales 47, Centro, 84560 Moctezuma, Son., Mexico",29.8022085,-109.6813361
SRIMS000314,"Los Ríos, 85440 Heroica Guaymas, Son., Mexico",27.9181232,-110.9020249
BCIMO000070,"Ensenada - Lázaro Cárdenas, Nuevo Mexicali, 22932 Lázaro Cárdenas, B.C., Mexico",30.5414092,-115.9362873
HGSSA005020,"Pachuca, Hgo., Mexico",20.1010608,-98.7591311
SRIMS000541,"Calle Gral. Otero Nte. S/N, Juárez, 85870 Navojoa, Son., Mexico",27.0680854,-109.4425041
JCSSA006890,"Pedro Moreno 75, La Cantera, 47300 Yahualica de González Gallo, Jal., Mexico",21.1817503,-102.888237
PLSSA006294,"Fco. I. Madero 87, San Sebastián de Aparicio, 72219 San Sebastián de Aparicio, Pue., Mexico",19.1061124,-98.15575899999999
OCSSA002146,"San Juan Bautista Tuxtepec, Oaxaca, Mexico",18.0809028,-96.1420947
NLSMP000105,"Carr Nacional 6501, La Estanzuela, 64988 Monterrey, N.L., Mexico",25.5893997,-100.257752
DFIMS000790,"Calz. de Tlalpan 931, Niños Héroes, Benito Juárez, 03400 Ciudad de México, CDMX, Mexico",19.3861816,-99.13944880000001
NTSSA002084,"Africa 10, San Francisco, Nay., Mexico",20.9007384,-105.410118
NTSSA000660,"Mololoa, Jesús María, Nay., Mexico",22.2564327,-104.5169846
GRSSA000034,"Av. Juan R. Escudero 158, Cd Renacimiento, 39715 Acapulco de Juárez, Gro., Mexico",16.8996226,-99.8275742
CLIMS000391,"Nueva Rosita, Coahuila, Mexico",27.9372635,-101.2174256
QRIMS000060,"Av. Coba S/N Supermanzana 22 Centro, 20, 77500 Cancún, Q.R., Mexico",21.1570163,-86.8273735
GTSSA000766,"Calle Gobernador Víctor Lizaldi s/n, Juan B. Castelazo esq, Valle del Real, 38060 Celaya, Gto., Mexico",20.5256289,-100.8460329
OCIMO004750,"Mariano Matamoros 7 Altos, Centro, 70400 Tlacolula, Oax., Mexico",16.9477061,-96.481256
NLSMP000040,"15 de Mayo 1822, Maria Luisa, Nuevo Obispado, 64040 Monterrey, N.L., Mexico",25.6744099,-100.3375922
JCIST000132,"Av. Soledad Orozco 203, El Capullo, 45100 Zapopan, Jal., Mexico",20.7185359,-103.3870895
VZSSA010212,"Aquiles Serdán S/N, Zona Centro, Ricardo Flores Magón, 94290 Boca del Río, Ver., Mexico",19.1031648,-96.10858619999999
TSSSA005151,"Av. Ejército Mexicano 1403, Col. allende, Los Pinos, 89130 Tampico, Tamps., Mexico",22.2535802,-97.85901559999999
NLIMS000636,"Moderno Apodaca, 66600 Cd Apodaca, N.L., Mexico",25.7919006,-100.1400611
NTIMS000342,"De Los Insurgentes Pte. 727, IMSS, 63120 Tepic, Nay., Mexico",21.5134197,-104.9106094
MCSSA010123,"Jorge Jiménez Cantú Centro S/N, Las Mercedes, 50450 Atlacomulco, Méx., Mexico",19.7892204,-99.88270270000001
DFIMS000184,"Av. Paseo de la Reforma 476, Juárez, Cuauhtémoc, 06600 Ciudad de México, CDMX, Mexico",19.4237317,-99.17334559999999
DGSDN000014,"Cinco de Mayo, Dgo., Mexico",24.1016813,-104.5763311
MSSDN000060,"Av. Emiliano Zapata 1002, Zona Militar, 62250 Cuernavaca, Mor., Mexico",18.9643221,-99.2460905
MCSSA008945,"Felipe Ángeles, Calle Canario y, Bellavista, Álvaro Obregón, 01140 Ciudad de México, CDMX, Mexico",19.3941181,-99.1935896
GTSSA017402,"Jose Maria Morelos y Pavon 102, Zona Centro, Apaseo el Alto, Gto., Mexico",20.4579648,-100.6030045
ZSIMS000353,"Zacatecas Centro, 98000 Zacatecas, Zac., Mexico",22.7752615,-102.5792491
SRIMS000413,"Calle Benito Juárez 206, Modelo, 83190 Hermosillo, Son., Mexico",29.1042159,-110.9534842
MCSSA007661,"Calle Doctor Nicolás San Juan, De La Magdalena, Delegación San Lorenzo Tepaltitlán I, Delegación San Lorenzo Tepaltitlán, 50010 Toluca de Lerdo, Méx., Mexico",19.3159895,-99.63663489999999
JCIMS000354,"Av. Circunvalación Oblatos 2208, Circunvalación Oblatos, 44716 Guadalajara, Jal., Mexico",20.6889991,-103.301833
ZSSSA013172,"Av García Salinas S/N, Las Arboledas, 98608 Guadalupe, Zac., Mexico",22.7541992,-102.5349954
DFIST000155,"Avenida Congreso de Chilpancingo Norte Sur S/N, Unidad Habitacional, Ermita Zaragoza, Iztapalapa, 09180 Ciudad de México, CDMX, Mexico",19.3646312,-98.99554189999999
SPIMS000195,"Av. Dr. Salvador Nava Martinez 105, Capricornio, 78399 San Luis, S.L.P., Mexico",22.146766,-100.9559089
GRIMS000013,"Hgr 1 V. Guerrero, Guerrero IMSS, MX",Na,NA
PLSSA008854,"Calle 2 Nte. 7, Centro, 72760 San Andrés Cholula, Pue., Mexico",19.0690657,-98.31882290000001
SRIMS000900,"Calle República de Cuba Machi López, Montebello, 83120 Hermosillo, Son., Mexico",29.0988334,-111.0011358
QTSSA001752,"Av. 5 de Febrero 101, Los Virreyes, 76170 Santiago de Querétaro, Qro., Mexico",20.5796907,-100.4059392
SPIMS000171,"Av. Nicolas Zapata NO. 203, De Tequisquiapan, 78000 San Luis, S.L.P., Mexico",22.154288,-100.984421
GRIST000025,"Av. Adolfo Ruiz Cortinez, Alta Progreso, 39610 Acapulco de Juárez, Gro., Mexico",16.8731297,-99.8874311
DFIMS000580,"Av. Cuauhtémoc 330, Doctores, Cuauhtémoc, 06720 Ciudad de México, CDMX, Mexico",19.408374,-99.1538989
HGSSA015503,"Unidad Deportiva Colonia, Unidad Deportiva, 43150 Tlanchinol, Hgo., Mexico",20.9989688,-98.65315969999999
DFIST000201,"Av. Universidad 1321, Florida, Álvaro Obregón, 01030 Ciudad de México, CDMX, Mexico",19.358644,-99.1726203
MNIMS000424,"Calle Calz. Benito Juárez S/N, Francisco, 60050 Uruapan, Mich., Mexico",19.427068,-102.0558705
VZSMA000040,"General Figueroa 151, Faros, 91700 Veracruz, Ver., Mexico",19.2000709,-96.13138599999999
MCSSA018412,"San Juanito, 56120 Texcoco, Méx., Mexico",19.5143605,-98.8717583
OCIMS000170,"Oriente Dos, Hab Militar, 70690 Salina Cruz, Oax., Mexico",16.1727607,-95.19505339999999
JCSSA000165,"Cardenal José Salazar López Sur 84, Jardines del Manantial, 46640 Ameca, Jal., Mexico",20.5338818,-104.0339505
VZIMS000733,"Ote. 6 2115, Centro, 94300 Orizaba, Ver., Mexico",18.850068,-97.0850856
MNIMS000593,"Perif. Paseo de la República 1935, Zona Sin Asignación de Nombre de Colonia, Morelia, Mich., Mexico",19.682125,-101.1759198
CHIMO000224,"33210, Vicente Guerrero 104, El Seguro, 33210 San Juanito, Chih., Mexico",27.969572,-107.5960385
GTSSA005683,"Calle 20 de Enero 927, Obregon, 37320 León, Gto., Mexico",21.1326882,-101.6801537
CHIST000042,"Calle Décima Sur & Av. 12 Sur, Los Ángeles, 33076 Delicias, Chih., Mexico",28.1781497,-105.4723503
OCIST000042,"Violeta 15, Jardines del Sur, 69007 Huajuapan de León, Oax., Mexico",17.8012809,-97.7799328
GTSSA016970,"Reforma, Emiliano Zapata, 38703 Tarimoro, Gto., Mexico",20.2830225,-100.7483169
TCSSA006565,"Tabasco, Mexico",17.8409173,-92.6189273
NLIST000105,"Pino Suarez, Centro, 64000 Monterrey, N.L., Mexico",25.6709691,-100.3197156
GTSDN000104,"Guanajuato, Mexico",20.9170187,-101.1617356
DFSSA000881,"Calz. San Juan de Aragón 285, Granjas Modernas, Gustavo A. Madero, 07460 Ciudad de México, CDMX, Mexico",19.4800712,-99.1033453
ASIMS000021,"Calle, Av. José Ma. Chávez 1202, Lindavista, 20270 Aguascalientes, Ags., Mexico",21.8661428,-102.2929878
JCIMS001392,"Carretera San Sebastian - Santa Fe 1000, Los Encinos, 45653 Tlajomulco de Zúñiga, Jal., Mexico",20.5072752,-103.3988092
DGIST000042,"Predio Canoas s/n, Colonia Obrera, Silvestre Dorador, 34070 Durango, Dgo., Mexico",24.0293891,-104.6816127
SLSME000016,"Prol. Álvaro Obregón 1422, Tierra Blanca, 80030 Culiacán Rosales, Sin., Mexico",24.8197606,-107.3957368
BSIMS000154,"Cabo San Lucas, BCS, Mexico",22.8905327,-109.9167371
PLIMS000446,"Avenida Juarez 14, Barrio de Ahuateno, 73800 Teziutlán, PUE, Mexico",19.8257191,-97.35661759999999
NTSSA001594,"Enfermería, Fray Junípero Serra, 63000 Tepic, Nay., Mexico",21.5010862,-104.897603
PLIST000171,"73870 De Xoloco, Gral de Div. Rafael Ávila Camacho 229, San Pedro Xoloco, 73870 De Xoloco, Pue., Mexico",19.8101208,-97.3562472
SRIST000162,"Av. Guillermo Chávez, Hidalgo, Navojoa, 85840 Navojoa, Son., Mexico",27.088244,-109.436648
MSIST000293,"Calle Paloescrito, 62765 Emiliano Zapata, Mor., Mexico",18.847307,-99.19755549999999
OCIMO000352,"Av. Paseo de la Reforma 476, Juárez, Cuauhtémoc, 06600 Ciudad de México, CDMX, Mexico",19.4237317,-99.17334559999999
BSIMS000014,"Agustín Olacheaa 105, Real, 23680 Cd Constitución, B.C.S., Mexico",25.0225526,-111.6694003
NLSSA004990,"65270, Alberto Chapa SN-I FABRICA, Bella Vista, 65270 Sabinas Hidalgo, N.L., Mexico",26.4968815,-100.1730445
MCSSA004231,"AVENIDA BORDO DE XOCHIACA, 57300 Nezahualcóyotl, TAMPS, Mexico",19.4220608,-99.0149242
MNIMO003942,"Carretera, Guadalajara-Morelia, Centro, Emiliano Zapata, Mich., Mexico",20.0003983,-102.614484
MNIMS000605,"AVENIDA, Bosque de los Olivos 101, 61301 La Goleta, Mich., Mexico",19.7248293,-101.092758
JCSSA009364,"Carretera Chapala - Jocotepec Km. 3, El Chante, Rancho Alegre, 45825 Chantepec, Jal., Mexico",20.2934254,-103.4019336
OCSSA020684,"Roma, Río Grande O Piedra Parada, Oax., Mexico",16.0103735,-97.43614819999999
CLIMS000321,"Calz Antonio Narro S/N, Zona Centro, 25000 Saltillo, Coah., Mexico",25.4174284,-101.0079306
GTSSA016912,"Luis F. Medina 50, Villa Corzo, 37980 San José Iturbide, Gto., Mexico",20.9891162,-100.392737
VZSSA004860,"Reforma, 94733 Río Blanco, Ver., Mexico",18.835249,-97.12535700000001
GTSSA003600,"Doctor Hernández Álvarez, 37600 San Felipe, Gto., Mexico",21.4669055,-101.207605
PLIMO002890,"La Concordia, Campo Deportivo, 73680 Zacapoaxtla, Pue., Mexico",19.8754627,-97.58660739999999
GRIMS000182,"Iguala - Taxco 501, Barrio de San Miguel, 40280 Taxco, Gro., Mexico",18.5536856,-99.6023812
QRSSA000373,"Av Andrés Quintana Roo 399, Martínez Ross, 77010 Chetumal, Q.R., Mexico",18.5169395,-88.3038246
VZIMS000890,"Carretera del Golfo SN, 3 de Mayo, Tres de Mayo, 95730 San Andrés Tuxtla, Ver., Mexico",18.4499126,-95.2263005
CHSSA001801,"Av. Paseo de la Victoria 3650, Partido Senecú, 32543 Cd Juárez, Chih., Mexico",31.6891067,-106.4051343
VZPMX000066,"Calle 16 Ote., Laredo, 93260 Poza Rica de Hidalgo, Ver., Mexico",20.5299878,-97.459234
QRSSA000023,"Calle 51 755, Juan Bautista Vega, 77200 Felipe Carrillo Puerto, Q.R., Mexico",19.5711098,-88.04588
VZIST000301,"Av. Salvador Díaz Mirón, Sayula &, Moderno, 91918 Veracruz, Ver., Mexico",19.1724294,-96.13437710000001
SRIMS000150,"Del Seguro, Multifamiliares, 85120 Cd Obregón, Son., Mexico",27.4954233,-109.9620683
HGIMO002043,"Ocampo y Moctezuma S/N, Col. Chililiapa, 43200 Zacualtipán, Hgo., Mexico",20.6516242,-98.65782399999999
JCSSA002195,"Coronel Calderón 777, El Retiro, 44280 Guadalajara, Jal., Mexico",20.6880786,-103.3435825
NLSMP001355,"San Jerónimo, Pte. 300, Miravalle, 64660 Monterrey, N.L., Mexico",25.6725163,-100.3701991
MCSSA005730,"Carretera Tejupilco Luviano km 1,, Tejupilco, 51406 Hidalgo, Méx., Mexico",18.9031477,-100.1580578
JCSSA008430,"Fray Bernardo Cossin 1200, El Tepeyac 2a. Secc, 47410 Lagos de Moreno, Jal., Mexico",21.3776358,-101.9205542
BSSDN000044,"Baja California Sur, Mexico",26.0444446,-111.6660725
DFIST001053,"Heberto Castillo 216, Miguel Hidalgo, Tláhuac, 13200 Ciudad de México, CDMX, Mexico",19.2798354,-99.05044149999999
CMIMS000186,"Av. Lapislazuli No. 250, El Haya, 28984 Villa de Álvarez, Col., Mexico",19.2698378,-103.7599217
BCSDN000053,"Baja California, Mexico",30.8406338,-115.2837585
OCSDN000212,"47 Batallon de Infanteria, 71604 Pinotepa Nacional, Oax., Mexico",16.3584069,-98.0785754
GTSSA017023,"San Bernardo No. 39 Brisas de los Ríos, 36112 Silao, Gto., Mexico",20.953624,-101.4096526
ASSSA001331,"Av. Ferrocarril S/N, Alameda, 20259 Aguascalientes, Ags., Mexico",21.8947652,-102.2825251
BCSSA000913,"Centenario 10851, Zona Río, Zona Urbana Rio Tijuana, 22000 Tijuana, B.C., Mexico",32.525088,-117.0095238
DFSSA004031,"Juan Badiano 1, Belisario Domínguez Secc 16, Tlalpan, 14080 Ciudad de México, CDMX, Mexico",19.2905285,-99.15385099999999
BCIMS000373,"Canadá 16801, Río Tijuana 3a. Etapa, Rio Tijuana 3ra Etapa, 22226 Tijuana, B.C., Mexico",32.4762431,-116.9267392
MCSSA001011,"Blvd. Adolfo Lopez Mateos, El Potrero, 52975 Cd López Mateos, Méx., Mexico",19.5462206,-99.2375127
CLIMS000490,"Calle Torreón 2000, Villa Diamante, 27086 Torreón, Coah., Mexico",25.5365478,-103.3400531
TSIMS000380,"i m s s Justo Sierra SN-S I.M.S.S, Centro Universitario, 87120 Cd Victoria, Tamps., Mexico",23.7197073,-99.14994399999999
NLSMP000740,"Isaac Garza 200 Ote, Centro, 64000 Monterrey, N.L., Mexico",25.6802178,-100.3119009
MNSSA001891,"Samuel Ramos S/N, Centro, 58020 Morelia, Mich., Mexico",19.6991744,-101.1830509
MNSSA004044,"Leandro Valle Sur #2, Melchor Ocampo, 61506 Zitácuaro, Mich., Mexico",19.4370996,-100.3550437
TSPMX000010,"4a. Avenida S/N, Jardín 20 de Noviembre, 89440 Cd Madero, Tamps., Mexico",22.2657262,-97.854996
MCSSA010292,"Calle Escondida No. 63, La Perla, 57820 Nezahualcóyotl, Méx., Mexico",19.3869364,-98.98977
GTPMX000013,"Tampico 910, Bellavista, 36730 Salamanca, Gto., Mexico",20.5799321,-101.2000032
BCIST000011,"Gral. Agustin Sanginés S/N, Carlos Pacheco, Militar, 22760 Ensenada, B.C., Mexico",31.8502051,-116.6076406
DGSDN000072,"Durango, Mexico",24.0277202,-104.6531759
HGSSA005032,"Huejutla de Reyes, Hgo., Mexico",21.1367171,-98.41221619999999
GTIMS000226,"Coral 101, Independencia, 37380 León, Gto., Mexico",21.1086107,-101.6879209
CLIMS000111,"Monclova, Coahuila, Mexico",26.9080378,-101.4215236
OCSSA000985,"Calle Porfirio Díaz 407, Reforma, 68000 Oaxaca de Juárez, Oax., Mexico",17.0820586,-96.7185097
GTSSA016994,"Calle de Morelos Ote 2, Zona Centro, 38260 Villagrán, Gto., Mexico",20.5109404,-100.9904153
GTSSA000585,"Prolongación Aldama 400, Los Comerciantes, 38160 Apaseo el Grande, Gto., Mexico",20.5499619,-100.6844923
SRSSA001110,"Blvd. Luis Encinas J. S/N, San Benito, 83000 Hermosillo, Son., Mexico",29.086562,-110.9622129
OCIMS000281,"R, 70987 La Crucecita, Oaxaca, Mexico",15.7616034,-96.1292612
MNSSA002965,"María Zendejas s/n, Centro, 61650 Tacámbaro de Codallos, Mich., Mexico",19.2370152,-101.4553446
SPIMO000546,"Carretera Estación Nochasco S/N, Chepinque, 78576 Charcas, S.L.P., Mexico",23.1276747,-101.1085134
PLSSA009394,"Calle 2 Sur, La Candelaria, El Conde, 72015 Puebla, Pue., Mexico",19.0866631,-98.19869899999999
SRIST000203,"Av Libertad 210, Sonora, 83440 San Luis Río Colorado, Son., Mexico",32.4695589,-114.7856894
ZSSSA002322,"Fresnillo, Zacatecas, Mexico",23.1777586,-102.8687414
DFSSA017886,"Prol. 5 de Mayo 3170, Ex hacienda de Tarango, Álvaro Obregón, 01620 Ciudad de México, CDMX, Mexico",19.3615439,-99.2244584
MSSSA002863,"Av. de la Salud 1, Benito Juárez, 62765 Emiliano Zapata, Mor., Mexico",18.8443365,-99.2023227
CHIMO000516,"Guachochi, Chihuahua, Mexico",26.8200412,-107.0692221
JCSSA001326,"Lic Carlos Paez Stille N/A, El Tinaco, 49070 Cd Guzman, Jal., Mexico",19.6976066,-103.4784292
GTSSA003233,"Av, De Los Deportes 515, Deportivo, 36749 Salamanca, Gto., Mexico",20.5909662,-101.2191829
SPIMO002475,"79930, De Los Deportes 11, Loma Bonita, 79930 Axtla de Terrazas, S.L.P., Mexico",21.4400417,-98.87107519999999
VZIMS001112,"Av. Cuauhtémoc, Formando Hogar, 91810 Veracruz, Ver., Mexico",19.1992044,-96.156088
GTSSA001121,"Blvrd Insurgentes Sur 1000, Nueva Rosales, 38345 Cortazar, Gto., Mexico",20.4747466,-100.9558331
NTSSA016072,"63440, México 100, PRI CNOP, PRI CNOP, 63440 Tecuala, Nay., Mexico",22.409368,-105.450854
NTIMS000144,"Netzahualcóyotl, López Velarde, 63311 Santiago Ixcuintla, Nay., Mexico",21.8130101,-105.1996444
OCSSA002052,"Calle Zaragoza SN, 68600 San Juan Bautista Cuicatlán, Oax., Mexico",17.8000359,-96.96128689999999
GRIST000112,"Av Ruffo Figueroa S/n, Burocratas, 39090 Chilpancingo de los Bravo, Gro., Mexico",17.5352995,-99.491377
OCSSA007705,"Calle Porfirio Díaz 407, Reforma, 68000 Oaxaca de Juárez, Oax., Mexico",17.0820586,-96.7185097
SLSSA018113,"José María Morelos y Pavón S/N, Infonavit Chutamonas, Magisterio, 81470 Guamúchil, Sin., Mexico",25.4556726,-108.0640393
SLIMS000020,"Blvd. Adolfo López Mateos, Las Fuentes, 81223 Los Mochis, Sin., Mexico",25.8091158,-108.9805884
QRSSA018062,"Calle Paseo de las Amapolas, M. 11, Lotes 1110-25, San Miguel 247, 77516 Cancún, Q.R., Mexico",21.1961633,-86.8763503
TLSSA001883,"Puebla, Mexico",19.1268454,-98.2004906
MNSSA002813,"Boulevard Lazaro Cardenas esq. Constitución S/N, Centro Dos, 59000 Sahuayo de Morelos, Mich., Mexico",20.057309,-102.7165782
DFSSA004084,"Calle Doctor Márquez 162 Delegación:, Doctores, Cuauhtémoc, 06720 Ciudad de México, CDMX, Mexico",19.4114752,-99.15322739999999
SLIMS000411,"Bulevard Antonio Rosales 662, Morelos, 81460 Guamúchil, Sin., Mexico",25.4554732,-108.076837
GRSDN000183,"Guerrero, Mexico",17.4391926,-99.54509739999999
MNSSA016480,"Platón 81-12, Centro, 58500 Puruándiro, Mich., Mexico",20.0907174,-101.5070307
MCSSA004074,"San Andrés Atoto, San Luis Tlatilco, 53580 Naucalpan de Juárez, Méx., Mexico",19.4684674,-99.234327
NLIMS000344,"Pino Suarez 550, Centro, 64000 Monterrey, N.L., Mexico",25.6719046,-100.3193835
VZIMS000144,"Av. Flores Magón & ESQ. CARRETERA CARDEL - NAUTLA, Col. EL MODELO JOSÉ CARDEL, El Modelo, 91685 La Antigua Veracruz, Ver., Mexico",19.376688,-96.3754132
NLIMS000303,"Av Fidel Velázquez s/n, Mitras Nte., 64180 Monterrey, N.L., Mexico",25.7161148,-100.3504782
MNSSA000836,"Casa Comunal, Portal Hidalgo 3, Centro, 60270 Michoacán, Mich., Mexico",19.6877392,-101.9547782
SPIMO001461,"Zacatipan, 79960 Tamazunchale, S.L.P., Mexico",21.2500998,-98.7681595
SRSSA001011,"Calle 12 S/N, Centro, 85400 Heroica Guaymas, Son., Mexico",27.9191772,-110.9001609
ASIMS000016,"Los Conos 105, Desarrollo Especial Ojocaliente, 20190 Aguascalientes, Ags., Mexico",21.877024,-102.2540153
ASIST000016,"Avenida Universidad 410, San Cayetano, 20010 Aguascalientes, Ags., Mexico",21.9018911,-102.3074932
GTSSA004650,"Blvd. Leovino Zavala 72, Independencia, 38980 Uriangato, Gto., Mexico",20.1515394,-101.1709798
CLIMS000333,"Blvd. Venustiano Carranza 2809, Kiosco, 25280 Saltillo, Coah., Mexico",25.4527018,-100.9868774
MCSSA002184,"Leona Vicario 109, Valle de Anahuac, 55200 Ecatepec de Morelos, Méx., Mexico",19.5143309,-99.0380868
MNIMS000161,"Av. Lázaro Cárdenas 154, 1er Sector de Fidelac, 60950 Lázaro Cárdenas, Mich., Mexico",17.9637455,-102.1988475
VZIST000226,"El Vergel, 93399 Poza Rica de Hidalgo, Ver., Mexico",20.5090892,-97.4378052
NTSSA016060,"Nueva Galicia, 63715 Las Varas, Nay., Mexico",21.1885905,-105.1345763
GRSSA010510,"Calle 7 Sur SN, Centro, 41100 Chilapa de Álvarez, Gro., Mexico",17.5925339,-99.17982909999999
VZSSA008314,"Paseo de Las Flores, Fracc. Virginia, Virginia, 94294 Veracruz, Ver., Mexico",19.1630287,-96.12286960000002
NLIMS000315,"Av Abraham Lincoln 34, Monterrey, N.L., Mexico",25.7652951,-100.41056
CHIMS000206,"Av. Río Conchos Pte. 515, Poniente, 33000 Delicias, Chih., Mexico",28.1950136,-105.4780897
PLIMO000691,"Nigromante SN, Centro, 73300 Chignahuapan, Pue., Mexico",19.8367976,-98.025294
MCSSA001682,"Av. del Mazo SN, San Miguel Xico, 56613 Valle de Chalco Solidaridad, Méx., Mexico",19.3500265,-98.983339
MCSSA010280,"Av. Libertadores de America 3, Fraccionamiento Las Americas, Las Américas, 55070 Ecatepec de Morelos, Méx., Mexico",19.5938428,-99.0194028
SLSSA000024,"Blvd, Gral. Macario Gaxiola 1449, Raul Romanillo, 81280 Los Mochis, Sin., Mexico",25.7711899,-108.988908
SRIMS000920,"Ave. Obregón 756 esq, Gral. Mariano Escobedo, Centro, 84000 Nogales, Son., Mexico",31.3182012,-110.9470949
JCSSA002113,"Hidalgo 584, 7 de Abril, 48740 El Grullo, Jal., Mexico",19.8121693,-104.2278283
TCSMP002315,"Av Paseo Tabasco 1114, Jesus Garcia, 86040 Villahermosa, Tab., Mexico",17.9944123,-92.9361194
MCSSA018774,"Carretera Zumpango-Jilotzingo 400 Barrio de Santiago 2a Seccion, 55600 Zumpango de Ocampo, Méx., Mexico",19.8152019,-99.0891967
DGIST000054,"Boulevard Miguel Alemán S/N, Centro, Magisterial, 35000 Gómez Palacio, Dgo., Mexico",25.5545735,-103.5075824
SLIMS000131,"Francisco Zarco, Guadalupe, 80220 Culiacán Rosales, Sin., Mexico",24.7973022,-107.3897368
VZSSA001150,"Av Benito Juárez s/n, Centro, 96400 Coatzacoalcos, Ver., Mexico",18.145159,-94.4243161
BCIMS000262,"Blvd. Diaz Ordaz 4001, Gas y Anexas, 22115 Tijuana, B.C., Mexico",32.4988333,-116.9657729
TSIMS000182,"Juan José de La Garza 600, Zona Centro, 89800 Cd Mante, Tamps., Mexico",22.7466976,-98.9651571
TSIST000054,"Guillermo Prieto 701, Tamaulipas, 89858 Cd Mante, Tamps., Mexico",22.7378863,-98.98367329999999
MNSSA016521,"1150 Federal Rd, Houston, TX 77015, USA",29.7695427,-95.2137451
MCSME000776,"Av Isidro Fabela 5, Maria Isabel, 56615 Valle de Chalco Solidaridad, Méx., Mexico",19.302278,-98.94994439999999
SPIMO000283,"Venustiano Carranza 33, Guadalupe, 79402 Cerritos, S.L.P., Mexico",22.4231499,-100.2831664
TSIMO000871,"Enrique Cárdenas Glz. 14, 87900 Cd Tula, Tamps., Mexico",22.9915033,-99.7190789
CMIMS000133,"Av. Paseo de la Reforma 476, Juárez, Cuauhtémoc, 06600 Ciudad de México, CDMX, Mexico",19.4237317,-99.17334559999999
VZSDN000186,"Veracruz, Mexico",19.2601605,-96.57833869999999
PLIST000154,"Dr. M. Pereyra Mejía 107, Cerritos, 75700 Tehuacán, Pue., Mexico",18.472086,-97.39882999999999
QTSDN000052,"Santiago de Querétaro, Qro., Mexico",20.5887932,-100.3898881
CHSDN000026,"J. Morón 4600, Cuarteles, 31000 Chihuahua, Chih., Mexico",28.6195837,-106.0824984
MNSDN000080,"Michoacán, Mexico",19.5665192,-101.7068294
SPIMO002651,"Aguascalientes ##20, 78670 Ville de Ramos, S.L.P., Mexico",23.0226841,-102.0350127
OCIST000252,"Sta Cruz, Tehuantepec, Oax., Mexico",16.2920871,-95.2295931
MNSSA005275,"Salvador Allende 100, Centro, 58600 Zacapu, Mich., Mexico",19.8143296,-101.7823314
MNIMS000506,"Av. Madero S/N, La Luneta, 59630 Zamora de Hidalgo, Mich., Mexico",19.9777875,-102.2916989
JCSMA000011,"Blv Francisco Medina Ascencio 2801, Guadalupe Victoria, 48336 Puerto Vallarta, Jal., Mexico",20.6840784,-105.2403207
MNSSA017400,"Antonio Hernández, Los Limones, 60697 Apatzingán de la Constitución, Mich., Mexico",19.0736187,-102.3489563
CHSSA000570,"Av Morelos 1732, Zona Centro, 31510 Cd Cuauhtémoc, Chih., Mexico",28.4125054,-106.8597614
MCSSA002761,"Carr Federal México-Puebla km. 34.5, Zoquiapan, 56530 Ixtapaluca, Méx., Mexico",19.3197577,-98.8524948
TSSSA001031,"Av Canales 800, Unidad Hogar, 87360 Heroica Matamoros, Tamps., Mexico",25.8695754,-97.4966831
SRSSA000055,"Francisco I. Madero Sn, La Palmas, 85760 Alamos, Son., Mexico",27.0263444,-108.9432566
MCSSA002020,"Emiliano Zapata s/n Barrio Transportistas de chimalhuacan, Transportistas, 56330 Chimalhuacán, Estado de México, Mexico",19.4435389,-98.9725782
QTSMP000215,"Av Circunvalación 6, Centro, 76020 Santiago de Querétaro, Qro., Mexico",20.5947983,-100.3796419
GRSSA004753,"Dr. Bernardo Sepulveda Gutiérrez, Guerrero SSA, MX",Na,NA
MNIMO003954,"2501, José María Morelos Y Pavón Nte., Arcos, 60500 Buenavista Tomatlán, Mich., Mexico",19.2298376,-102.5861752
VZSSA008326,"J. Luis Cuevas 10, Buena Vista II, 91080 Xalapa-Enríquez, Ver., Mexico",19.5102922,-96.928647
VZSSA003595,"Av 18 de Octubre 114, Santa Clara, 96730 Minatitlán, Ver., Mexico",17.9901062,-94.55953799999999
SRSSA018313,"La Paz, Huatabampo, Son., Mexico",26.842562,-109.6414261
SPIMS000072,"Blvd. Mexico - Laredo 940, Moctezuma, 79080 Palmasola, S.L.P., Mexico",21.9961953,-99.0117104
QRIMS000154,"Calle Av Petempich 2376, Playa del Carmen, Q.R., Mexico",20.6687432,-87.0616427
YNIMS000071,"C. 22, Chuburna de Hidalgo, Chuburná de Hidalgo, 97205 Mérida, Yuc., Mexico",21.0135144,-89.63377059999999
CCPMX000013,"Hospital General de Pemex, Aviación, Petrolera, 24180 Ciudad del Carmen, CAMP, Mexico",18.6446477,-91.8196993
TSIMS000071,"Blvd. A. López Mateos S/N, Esfuerzo Nacional, 89470 Cd Madero, Tamps., Mexico",22.2472817,-97.8552431
TSIMS000533,"Carretera, Reynosa - San Fernando KM 104, Piramides III, 88799 Reynosa, Tamps., Mexico",25.9369894,-98.2686415
DFSSA000840,"F.C. Hidalgo 200, Villa Gustavo A. Madero, Gustavo A. Madero, 07050 Ciudad de México, CDMX, Mexico",19.4871381,-99.1140286
BSSSA001213,"Av. de los Deportistas 86, Antiguo Aeródromo Militar, 23085 La Paz, B.C.S., Mexico",24.1127411,-110.3188638
SPSSA001032,"Blvd. Salinas N/A, Barrio de San Juan, 78600 Salinas de Hidalgo, S.L.P., Mexico",22.619333,-101.720284
HGIMO000952,"Hidalgo Kilómetro 80, Centro, 43400 Metepec, Hgo., Mexico",20.2413979,-98.3307668
ZSIMO001182,"Francisco I. Madero 231, San Francisco, 99700 Tlaltenango de Sánchez Román, Zac., Mexico",21.7828971,-103.3110188
BCIMS000122,"Avenida Sebastián Lerdo de Tejada 1487-1465, Segunda, 21100 Mexicali, B.C., Mexico",32.6621216,-115.4676668
VZPMX000054,"Calle 12 LT5, Petrolera, 96850 Minatitlán, Ver., Mexico",18.0056057,-94.54215819999999
MNIMO001125,"Libramiento S/N, Sin Nombre, Juárez, 61940 Huetamo de Núñez, Mich., Mexico",18.6273257,-100.8859384
SPSSA001703,"Melchor Ocampo 4, 79960 Tamazunchale, S.L.P., Mexico",21.2775801,-98.75036659999999
HGIST000041,"La Lomita, 43000 Huejutla, Hgo., Mexico",21.1339055,-98.4092537
JCSDN000186,"Jalisco, Mexico",20.6595382,-103.3494376
SLIMS000341,"Av Ejercito Mexicano, San Ángel, 82016 Mazatlán, Sin., Mexico",23.2250961,-106.4203751
TLIMS000194,"Guillermo Valle 115, Centro, 90000 Tlaxcala de Xicohténcatl, Tlax., Mexico",19.3258951,-98.2284612
QRIMS000031,"Adolfo López Mateos 428, Campestre, 77035 Chetumal, Q.R., Mexico",18.5068117,-88.3100352
CLIMS000251,"Delicias, El Pedregal, 26070 Piedras Negras, Coah., Mexico",28.6760694,-100.5466954
HGSSA017941,"HGO 37, Metztitlán, Hgo., Mexico",20.590272,-98.759239
NLSMP000110,"Monterrey, Nuevo Leon, Mexico",25.6866142,-100.3161126
QTSSA012935,"Luis Donaldo Colosio 422, México, 76804 San Juan del Río, Qro., Mexico",20.3771873,-99.9541019
MCSME001114,"S. Pablo 119, San Antonio, 51200 Valle de Bravo, Méx., Mexico",19.2063969,-100.1371843
SLSSA000666,"Av Gral Ignacio Aldama S/N, Guadalupe, 80230 Culiacán Rosales, Sin., Mexico",24.7945122,-107.3869681
BSSSA001510,"Agustín Olacheaa 105, Real, 23680 Cd Constitución, B.C.S., Mexico",25.0225526,-111.6694003
BSIST000014,"Niños Heroes, Pueblo Nuevo, Cd Constitución, B.C.S., Mexico",25.0341001,-111.6461367
MNSSA016504,"Tuzantla, Michoacán, Mexico",19.2066671,-100.5753759
SPIST000142,"Carretera Kilometro 0.5, Zacatipan, Fovissste, 79960 Tamazunchale, S.L.P., Mexico",21.2511821,-98.7758338
OCSSA021080,"Teotitlán de Flores Magón, Oaxaca, Mexico",18.1345434,-97.07404679999999
JCIMS000190,"Avenida Cristóbal Colón 750, Cd Guzmán Centro, 49000 Cd Guzman, Jal., Mexico",19.7200729,-103.4603467
MNSSA005280,"Pátzcuaro, Michoacán, Mexico",19.5300197,-101.5736109
PLIMO002004,"Av 20 De Noviembre S/N, 20 de Nov 115, Barrio de Xilotepec, Jilotepec, 75160 San Salvador el Seco, Pue., Mexico",19.1345421,-97.649958
SRSME000011,"Av Aguascalientes S/N, Centro, 83000 Hermosillo, Son., Mexico",29.0965991,-110.9534086
CMIST000010,"Calle Ignacio Sandoval 867, Lomas de Circunvalación, 28010 Colima, Col., Mexico",19.2512012,-103.7142869
JCSSA006115,"Independencia 203, Las Primaveras, 48450 Tomatlán, Jal., Mexico",19.9431494,-105.250563
VZIMO001055,"De Constitución s/n, Barrio Dos Caminos, 92700 Chicontepec de Tejeda, Ver., Mexico",20.9683625,-98.188237
BCIMS000011,"Av. Reforma N/A, Bahia, 22880 Ensenada, B.C., Mexico",31.8576021,-116.6054206
GTSSA017501,"San Diego de la Unión, Guanajuato, Mexico",21.4652133,-100.8796788
SRSSA002085,"Av Guadalupe Victoria S/N, Comercial, 83440 San Luis Río Colorado, Son., Mexico",32.4699758,-114.7779451
HGIMO000771,"Niesu 25 Fraccionamiento Playas de 42300, San Javier, 42305 Ixmiquilpan, Hgo., Mexico",20.4907086,-99.2200254
YNIMS000083,"C. 41 436c, Industrial, 97150 Mérida, Yuc., Mexico",20.9791897,-89.60373659999999
CLSSA000033,"Blvd. Vicente Guerrero 2295, Vista Hermosa, 26290 Cd Acuña, Coah., Mexico",29.3060345,-100.9268615
MNSSA003945,"Avenue Virrey de Mendoza Ote. 281, Jardinadas, 59680 Zamora de Hidalgo, Mich., Mexico",19.9752353,-102.2856182
MSSSA003020,"Axochiapan, Morelos, Mexico",18.4890945,-98.7622183
BSSSA001131,"Los Pinos S/N, Arcos del Sol I, 23474 Cabo San Lucas, B.C.S., Mexico",22.9030156,-109.9248578
OCIMS000136,"CALZ, Héroes de Chapultepec 621, Centro, 68000 Oaxaca de Juárez, Oax., Mexico",17.0721023,-96.7212606
TSPMX000022,"Macuspana, José de Escandón, 88680 Reynosa, Tamps., Mexico",26.069659,-98.270645
MNSSA016533,"Km. 2.5 Carr. la Piedad Guadalajara, Las Margaritas, 59300 La Piedad de Cavadas, Mich., Mexico",20.3562889,-102.0564575
VZIMS000231,"Avenida Flores Magon 417, Manuel Avila Camacho, 96420 Coatzacoalcos, Ver., Mexico",18.139662,-94.4334137
BCSSA000440,"Calle del Hospital, Centro Cívico, 21000 Mexicali, B.C., Mexico",32.644622,-115.475683
QRIMS000014,"30 Avenida Sur 600, Independencia, 77664 San Miguel de Cozumel, Q.R., Mexico",20.499636,-86.9509269
HGSSA005044,"Los Mirasoles S/N, Lindavista, 43420 Huehuetla, Hgo., Mexico",20.4616204,-98.0688203
TLSSA017983,"San Martin de Porres, San Martín de Porres, 90337 Apizaco, Tlax., Mexico",19.4102456,-98.14964499999999
JCSSA004230,"Calle Noruega No. 580, Villas del Real, 48290 Puerto Vallarta, Jal., Mexico",20.669183,-105.210296
TCSSA001064,"Calle Uno S/N, Miguel Hidalgo III Etapa, 86126 Villahermosa, Tab., Mexico",17.9775971,-92.9860767
VZSDN000174,"Av. Ejército Mexicano Ote. SN, Boticaria, 94290 Boca del Río, Ver., Mexico",19.1452262,-96.13040559999999
OCSDN000224,"Oaxaca, Mexico",17.0542297,-96.7132304
GTSSA017385,"Valle de Santiago, Guanajuato, Mexico",20.3976898,-101.2196696
MNSSA016492,"Calle Francisco I. Madero 113, Ciudad Hidalgo Centro, 61100 Cd Hidalgo, Mich., Mexico",19.6942933,-100.5456346
ZSSDN000050,"Zacatecas, Mexico",22.7708555,-102.5832426
PLSSA016893,"Los Arcos, Centro, 75482 Tecamachalco, Pue., Mexico",18.8794331,-97.71437929999999
SLIMO000576,"81820, Prof. Rebeca Serna Escoboza SN-S, SRH, 81820 El Fuerte, Sin., Mexico",26.4075865,-108.6207878
HGSSA001590,"Carretera Pachuca - Ixmiquilpan Km. 64 S/N Deaxadho, 42320 Ixmiquilpan, Hgo., Mexico",20.4338192,-99.15551459999999
DGIMS000042,"Avenue De La Normal 200, Predio Canoas, 34077 Durango, Dgo., Mexico",24.0283348,-104.6824692
NLSME000024,"Pino Suarez, Centro, 64000 Monterrey, N.L., Mexico",25.6709691,-100.3197156
JCSSA008466,"Av. Dr. Angel Leaño 500, Los Robles, 45200 Nuevo México, Jal., Mexico",20.7586521,-103.4118497
MNIST000103,"Los Aztecas 9322, Moderna, 32670 Cd Juárez, Chih., Mexico",31.6617013,-106.4746059
SRIMS000915,"Sonora, Mexico",29.2972247,-110.3308814
SRIMS000116,"Caborca, Sonora, Mexico",30.6954438,-112.1835004
GTSSA003793,"Blvrd Panamá S/N, San Miguel, 36360 San Francisco del Rincón, Gto., Mexico",21.0137055,-101.8466156
SRIST000174,"Blvd. del Ensueño, Lomas de Fátima, 84020 Nogales, Son., Mexico",31.323963,-110.9529287
TSIMS000211,"Sexta Ocampo 800, Zona Centro, 87300 Heroica Matamoros, Tamps., Mexico",25.8723147,-97.5035659
MCSSA018750,"Calle Laura Méndez de Cuenca 7, San Francisco Zentlalpan, Méx., Mexico",19.1447629,-98.7850151
CLIST000123,"Donato Guerra S/N, Segundo de Cobián Centro, 27000 Torreón, Coah., Mexico",25.5414077,-103.4445236
SPSSA000064,"Las Palmas S/N, Centro, 79760 Aquismón, S.L.P., Mexico",21.6255284,-99.01654599999999
SPSSA002654,"Cordelia No. 8, Centro, 78940 Villa de Arista, S.L.P., Mexico",22.639602,-100.8391135
NLSMP000052,"15 de Mayo 1822, Maria Luisa, Nuevo Obispado, 64040 Monterrey, N.L., Mexico",25.6744099,-100.3375922
CHIMS000450,"BENITO JUAREZ Y, Victoria 1901, Centro, 31700 Nuevo Casas Grandes, Chih., Mexico",30.4084158,-107.914267
ZSIMS000090,"AVENIDA MIGUEL HIDALGO Y CALERA 8 FRESNILLO, Centro, 99000 Centro, Zac., Mexico",23.1671434,-102.871415
CSIST000193,"Calle José María Morelos 57, Santa Martha, 29278 San Cristóbal de las Casas, Chis., Mexico",16.7256332,-92.6466456
GTSSA017542,"Vialidad interior, Malvas 367, Revolución, 36546 Irapuato, Gto., Mexico",20.6779568,-101.3028737
HGSSA002751,"Carretera Tulancingo San Bartolo S/N, La Magdalena, 43440 San Bartolo Tutotepec, Hgo., Mexico",20.395178,-98.203423
VZSSA002970,"Calle Dr. Pedro Rendón 1, Zona Centro, Centro, 91000 Xalapa-Enríquez, Ver., Mexico",19.5258616,-96.921065
OCSSA001463,"Carretera Oaxaca - Puerto Angel Kilómetro 12.5, San Bartolo Coyoyepec, 71256 San Bartolo Coyotepec, Oax., Mexico",16.94665,-96.71093499999999
CCIST000021,"Calle 7 30, Miramar, 24030 Campeche, Camp., Mexico",19.8260403,-90.56393159999999
YNSSA001224,"Lázaro Cárdenas, 97700 Tizimín, Yuc., Mexico",21.1340235,-88.1506399
YNIST000030,"Sin Nombre No. 3 321, Susulá, Yuc., Mexico",20.9741107,-89.69164549999999
CHSSA018514,"Calle Tercera 601, Zona Centro, 31000 Chihuahua, Chih., Mexico",28.6366494,-106.0745832
YNIMS000095,"Av Miguel Hidalgo 216 Colonia, García Ginerés, 97070 Mérida, Yuc., Mexico",20.9880689,-89.63919899999999
SRIST000104,"Ensenada Grande S/N, Fovissste, 85140 Heroica Guaymas, Son., Mexico",27.9241219,-110.9210305
OCSSA019996,"Nejapa de Madero, Oaxaca, Mexico",16.6072008,-95.9792662
BCIST000093,"Av. las Palmas 4141, 20 de Noviembre, 22100 Tijuana, B.C., Mexico",32.5082274,-116.9851502
CLIST000193,"Miguel Hildago 133, Nuevo León, 26830 Nueva Rosita, Coah., Mexico",27.9401455,-101.2199904
CLIST000181,"Ignacio M. Altamirano 765, Prof Federico Berrueto Ramón, 26730 Sabinas, Coah., Mexico",27.8564091,-101.1228236
CLSSA002862,"Calzada Doctor y General José María Rodríguez S/N Fraccionamiento, Villas del Sol, Sin Nombre de Col 19, 27067 Torreón, Coah., Mexico",25.5322586,-103.325201
JCSSA002224,"Salvador Quevedo y Zubieta 750, Independencia Oriente, 44340 Guadalajara, Jal., Mexico",20.6863214,-103.3336603
DGSSA002414,"Las Palmas SN Bellavista, Rinconadas Bugambilias, 35000 Gómez Palacio, Dgo., Mexico",25.5917776,-103.4844467
CHIMS000136,"Chihuahua, Mexico",28.6329957,-106.0691004
SLSSA018253,"Libertad 88, Paredones, 82400 Escuinapa, Sin., Mexico",22.8383064,-105.7651455
SRSSA017671,"84200 Agua Prieta, Sonora, Mexico",31.3193637,-109.5825217
BCIST000040,"Calz Independencia, Centro Cívico, 21000 Mexicali, B.C., Mexico",32.6434319,-115.4764825
TCIST000063,"Av. 27 de Febrero 1803, Atasta de Serra, 86100 Villahermosa, Tab., Mexico",17.9835683,-92.9442548
CSIMS000251,"11A. Calle Oriente Norte, Hidalgo, 29043 Tuxtla Gutiérrez, Chis., Mexico",16.7562317,-93.10630719999999
CHSSA018444,"Parral, Chihuahua, Mexico",26.9473625,-105.7170766
CHSDN000043,"Privada J. Morón S/N, Cuarteles, 31020 Chihuahua, Chih., Mexico",28.6198439,-106.0824853
SRSSA001851,"Dr. Francisco Arreola 1277, Moderna, 84055 Nogales, Son., Mexico",31.309453,-110.9445164
DGIMS000083,"Av. J. Agustín Castro SN, Cerro de La Cruz, Primero de Cobián Centro, 35000 Gómez Palacio, Dgo., Mexico",25.556914,-103.5055189
DGIMS000095,"Calle María Esther Galarza No. 222 Fraccionamiento, Fidel Velásquez, Fidel Velázquez, 35025 Gómez Palacio, Dgo., Mexico",25.5702476,-103.5220781
JCSSA013045,"Andres Teran 118, La Martinica, 47010 San Juan de los Lagos, Jal., Mexico",21.2500425,-102.3421053
QRIST000043,"Octaviano Solís 20, Cedros, 77020 Chetumal, Q.R., Mexico",18.5181958,-88.32403769999999
GTSSA017472,"Carretera A Pozos Km 18, El Quijay, 37900 San Luis de la Paz, Gto., Mexico",21.2793237,-100.4958952
CLIMS000444,"Boulevard Revolución S/N, Luis Echeverría Álvarez Sector Norte, Luis Echeverría Álvarez Sector Nte., 27220 Torreón, Coah., Mexico",25.5354618,-103.4458842
TCSDN000081,"Tabasco, Mexico",17.8409173,-92.6189273
MNSSA016516,"Nocupétaro, Michoacán, Mexico",19.037325,-101.1393706
MCSME000011,"Paseo Colón S/N, General Felipe Ángeles, Villa Hogar, 50170 Toluca de Lerdo, Méx., Mexico",19.2670562,-99.6616038
VZSSA008290,"Coatzacoalcos, Ver., Mexico",18.1460854,-94.51049630000001
BSIST000101,"Calle Tifón, El Rosarito, 23444 San José del Cabo, B.C.S., Mexico",23.0685266,-109.7087089
JCSSA003496,"Manuel Ávila Camacho 423, Centro, 46470 Magdalena, Jal., Mexico",20.9103127,-103.9689855
JCSSA013762,"Atotonilco El Alto, Jalisco, Mexico",20.5502447,-102.5081224
TCIMS000121,"Tabasco, Mexico",17.8409173,-92.6189273
DGIMO000352,"Carretera Ramón Corona, DGO 500, La Estación, 34700 Cd Guadalupe Victoria, Durango, Mexico",24.4380563,-104.1217017
CSIMS000205,"Coatancito 10, Los Naranjos, El Coatancito, 30700 Tapachula de Córdova y Ordoñez, Chis., Mexico",14.9198219,-92.26638679999999
TCSSA004716,"Tenosique 18, Municipal, 86904 Tenosique de Pino Suárez, Tab., Mexico",17.4692481,-91.41173239999999
JCIMS000692,"BOULEVARD FRANCISCO MEDINA ASCENCIO Y MELCHOR OCAMPO 2066 PUERTO VALLARTA, COL, Díaz Ordaz, 48310 Puerto Vallarta, Jal., Mexico",20.6380511,-105.2318754
SPSSA003540,"Prol, Calz de Guadalupe 5850, Lomas de la Virgen, 78380 San Luis, S.L.P., Mexico",22.0978776,-100.9549256
JCSSA004930,"Gral. Manuel Ávila Camacho 191, Guadalupe, 49300 Sayula, Jal., Mexico",19.8836405,-103.6073345
CHIMS000293,"Anillo Envolvente del Pronaf 3970, Zona Pronaf Condominio La Plata, 32315 Cd Juárez, Chih., Mexico",31.7398026,-106.4502086
JCSSA007066,"Av Zoquipan 1050, Zoquipan, 45170 Zapopan, Jal., Mexico",20.7174108,-103.3697041
CMIMS000104,"Colegio Militar NO. 1, Centro, 28100 Tecomán, Col., Mexico",18.913679,-103.8771354
BCSDN000041,"Baja California, Mexico",30.8406338,-115.2837585
CHIMS000095,"Ciudad Cuauhtemoc, Chihuahua, Mexico",28.406359,-106.8654066
PLSSA015551,"Del Roble o, Calle del Roble 7, Barrio San Bartolo, 73310 Zacatlán, Pue., Mexico",19.9198116,-97.9629106
CLIMS000596,"Nuevo Centro Metropolitano de Saltillo, 25022 Saltillo, Coah., Mexico",25.4187266,-100.9612119
CHIMS000276,"Independencia S/N, Hidalgo del Parral Centro, Sin Asignación En Nombre de Asentamiento, 33800 Hidalgo del Parral, Chih., Mexico",26.9287633,-105.6507374
TLSSA000722,"Emiliano Zapat 15, Séptima Secc, 90690 Tlaxcala de Xicohténcatl, Tlax., Mexico",19.3340328,-98.16937580000001
TSSSA001550,"Ferrocarril, 88050 Nuevo Laredo, Tamps., Mexico",27.485693,-99.5044442
JCSSA013815,"Venus 84, Col. Fraccionamiento del Sol, 47910 La Barca, Jal., Mexico",20.3005574,-102.5537328
QRSSA018001,"Av. Constituyentes S/N, Ejido, 77710 Playa del Carmen, Q.R., Mexico",20.6445382,-87.0953548
JCSSA001401,"Km. 67 Carretera Guadalajara Barra de Navidad 43, Rinconada, 48500 Cocula, Jal., Mexico",20.3750818,-103.819921
SLSSA017606,"Miguel Tamayo Espinoza de los Monteros s/n, Desarrollo Urbano Tres Ríos, 80020 Culiacán Rosales, Sin., Mexico",24.795669,-107.4506944
SPSSA017144,"Xilitla, San Luis Potosi, Mexico",21.3711347,-99.0137962
SPSSA000262,"Mariano Moctezuma, San Jose, 79300 Cd del Maíz, S.L.P., Mexico",22.3996274,-99.60682349999999
MNSSA016545,"Carretera a Cuatro Caminos SN, Ichamio, 61850 La Huacana, Mich., Mexico",18.9512051,-101.8190065
OCIST000165,"La Rosalía, 68340 San Juan Bautista Tuxtepec, Oaxaca, Mexico",18.081977,-96.1519361
CSIMO005210,"Segunda Pte. 21A, Zona Centro, Venustiano Carranza, Chis., Mexico",16.3394657,-92.56591449999999
VZIMS000342,"Miguel Alemán 130, Centro, 95400 Cosamaloapan, Ver., Mexico",18.3653089,-95.783695
GTSSA017431,"5 de Mayo 100, 5 de Mayo, 38940 Yuriria, Gto., Mexico",20.2094657,-101.1434331
CLIMS000432,"Dieciséis, Braulio Fernández Aguirre, 27380 Torreón, Coah., Mexico",25.5112271,-103.4286502
TCSSA001245,"Heroico Colegio Militar, Atasta de Serra, 86100 Villahermosa, Tab., Mexico",17.9815051,-92.94121779999999
GRIMS000124,"Zihuatanejo, Guerrero, Mexico",17.6416693,-101.5516955
TSIST000095,"Tamaulipas, Mexico",24.26694,-98.8362755
CCSSA000100,"Boulevard N/A, Barrio de Guadalupe, 24000 Campeche, Camp., Mexico",19.8448859,-90.5321335
TSSDN000096,"Tamaulipas, Mexico",24.26694,-98.8362755
CMSDN000040,"Colima, Mexico",19.1222634,-104.0072348
SPSSA017301,"Blvd. Antonio Rocha Cordero 2510, San Juan de Guadalupe, 78364 San Luis, S.L.P., Mexico",22.1159933,-100.985797
SRSME000303,"Av Aguascalientes S/N, Centro, 83000 Hermosillo, Son., Mexico",29.0965991,-110.9534086
TCIMS000022,"Felipe Carrillo Puerto, Pueblo Nuevo, 86560 Heroica Cárdenas, Tab., Mexico",17.9984295,-93.38282939999999
YNIMO000031,"Calle 21, ACANCEH, 97380 Acanceh, Yuc., Mexico",20.8146789,-89.4599403
SLSSA002556,"Calle Constitución 530, Jorge Almada, 80200 Culiacán Rosales, Sin., Mexico",24.798775,-107.3994245
VZIMO002105,"Harriman Sotomayor 19, San Miguel, 96260 Jáltipan de Morelos, Ver., Mexico",17.9719396,-94.72083250000001
JCSSA005584,"Calle Amado Nervo 1025, La Gloria, 46670 Tepatitlán de Morelos, Jal., Mexico",20.8117992,-102.7793739
VZIMO002875,"93400, Lázaro Cárdenas 302, Barrio del San Juan, 93400 Papantla de Olarte, Ver., Mexico",20.4540074,-97.3203731
TSIST000153,"Oaxaca SN, Fovissste, 87048 Cd Victoria, Tamps., Mexico",23.7545227,-99.1515469
YNSSA001871,"Valladolid, Yucatan, Mexico",20.68964,-88.20224879999999
JCSSA000631,"Jardines Del Sol, Del Sol, 48900 Autlán de Navarro, Jal., Mexico",19.7687409,-104.3550272
HGIMO000643,"Carretera México - Tampico Km. 214, La Lomita, 43000 Huejutla, Hgo., Mexico",21.1365663,-98.4086885
SRIST000046,"Calle Querétaro, Cincuentenario, 85040 Cd Obregón, Son., Mexico",27.5061297,-109.9516949
CHIMO000043,"Calle Independencia S/N, Nicolas Fernandez, Centro, 33920 Valle de Ignacio Allende, Chih., Mexico",26.933398,-105.3940907
CMSSA001023,"Pedro Torres Ortiz S/N, Villas del Real, 28150 Tecomán, Col., Mexico",18.9062859,-103.8840862
TSSSA018514,"Carr. Tampico - Mante Km 27, 89603 Altamira, Tamps., Mexico",22.4599777,-97.976675
OCIMS000182,"Benito Juárez 73B, El Castillo, 68380 San Juan Bautista Tuxtepec, Oax., Mexico",18.0823713,-96.13782359999999
ASSSA000030,"Av. Siglo XXI 103, Morelos, Satelite Morelos, 20298 Aguascalientes, Ags., Mexico",21.8561051,-102.2556522
YNSSA013476,"Calle 59, Tekax de Álvaro Obregón, Yuc., Mexico",20.187198,-89.26444099999999
CCIMS000045,"Ciudad del Carmen, Campeche, Mexico",18.6504879,-91.80745859999999
JCSSA002632,"Av. Gral. Marcelino García Barragán 23, Morelos, 48850 La Huerta, Jal., Mexico",19.4804499,-104.6456766
CSIST000065,"Jiménez & De Abasolo N/A, Miguel Alemán, 30099 Comitán de Domínguez, Chis., Mexico",16.2310402,-92.1362779
QRSSA001843,"Taxistas, Martínez Ross, 77037 Chetumal, Q.R., Mexico",18.5170703,-88.3040718
YNSDN000072,"Yucatan, Mexico",20.7098786,-89.0943377
NLSSA014295,"Av. San Rafael 460, San Rafael, 67140 Guadalupe, N.L., Mexico",25.694406,-100.2233881
MNSSA001874,"Interior Bosque Cuauhtemoc s/n, Centro, Centro histórico de Morelia, 58000 Morelia, Mich., Mexico",19.6995023,-101.1810805
CLIMO000281,"Av Independencia S/N, Centro, 27440 Matamoros, Coah., Mexico",25.5275417,-103.2299756
TCSSA001052,"Tenochtitlan s/n, El Recreo, 86020 Villahermosa, Tab., Mexico",18.0128565,-92.92352729999999
QRSSA001860,"Cancun - Chetumal 307, Tulum Centro, Tulum, Q.R., Mexico",20.2099121,-87.4676844
SPSSA003523,"Vicente Guerrero 521, Centro, 78700 Matehuala, S.L.P., Mexico",23.644421,-100.6368842
ASSSA000655,"Colonia San José, Prolongacion Morelos Sur S/N, Colonia San José,, San José, 20400 Rincón de Romos, Ags., Mexico",22.2248086,-102.321334
TSSSA001772,"Blvd. Álvaro Obregón 425, Presa la Laguna, 88750 Reynosa, Tamps., Mexico",26.0553867,-98.2969543
YNSDN000014,"Calle 61ᴬ, Centro, 97000 Mérida, Yuc., Mexico",20.9710457,-89.643723
JCSSA001454,"Hospital s/n-sección 2, Nuevo Tlaxcala, 46200 Colotlán, Jal., Mexico",22.0991426,-103.2708909
CHIMS000305,"Av. Valentín Fuentes s/n, Misiones del Portal, Casas Grandes, 32809 Cd Juárez, Chih., Mexico",31.7054837,-106.4357266
CMSSA001356,"Ejido, Av Elías Zamora S/N, Nuevo Salahua, 28869 Manzanillo, Col., Mexico",19.1165028,-104.3272471
CHIMS000573,"Calle Ramón Rayon, Fracc, Calle Eduarda Barbachano 951, 32575 Cd Juárez, Chih., Mexico",31.6194571,-106.3842547
TSSDN000101,"Tamaulipas, Mexico",24.26694,-98.8362755
CCIMS000016,"De La 1, Lomas, 24060 Campeche, Camp., Mexico",19.8363475,-90.5152572
MNSSA001722,"Brisas , Río Balsas 12, José Green, 60952 Lázaro Cárdenas, Mich., Mexico",17.9674308,-102.2022648
TCSSA001076,"Av. Gregorio Méndez Magaña No. 2838, Col. Tamulte de las Barrancas, Atasta de Serra, 86150 Villahermosa, Tab., Mexico",17.9765268,-92.95299030000001
SLSSA017594,"Boulevard Luis Donaldo Colosio SN, Arroyitos, 82700 Elota, Sin., Mexico",23.9331975,-106.8759952
DFSSA002672,"Camino Real a Xochimilco 31, La Noria, Xochimilco, 16030 Ciudad de México, CDMX, Mexico",19.2668017,-99.1271526
MCSME000916,"Tomas Alva Edison s/n, Delegación San Lorenzo Tepaltitlán I, Delegación San Lorenzo Tepaltitlán, 50160 Toluca de Lerdo, Méx., Mexico",19.3031864,-99.6267981
JCSSA008401,"Prolongacion Victoria 125, 46000 Huejuquilla el Alto, Jal., Mexico",22.6219536,-103.9003015
SPSSA017120,"Fray Diego de La Magdalena 530, Col del Valle, 78250 San Luis, S.L.P., Mexico",22.1504396,-101.0022954
SLSSA001255,"Carr. a las glorias km 1.5, Constelacion, Doctores, 81101 Guasave, Sin., Mexico",25.5531911,-108.4751773
ASIMS000161,"AV. GENERAL PROLONGATION IGNACIO ZARAGOZA 905 AGUASCALIENTES COL. EJIDO DE JESUS ​​MARIA, JESUS ​​MARIA, 20908 Aguascalientes, Ags., Mexico",21.9567742,-102.3076362
TLSSA001376,"Carretera San Andres Ahuajuastepec Sn, Avenida Universidad, Barrio de San José, 90491 San Andrés Ahuashuatepec, Tlax., Mexico",19.4086111,-98.11833329999999
CHSDN000055,"Chihuahua, Mexico",28.4854458,-105.7820674
TSSSA018000,"Sabino # 300, Altavista II, 89880 Cd Mante, Tamps., Mexico",22.7269522,-98.9696527
CSIMO002270,"Carretera Comitán a 3 Horas Orilla Carretera a, 30188 Guadalupe Tepeyac, Chis., Mexico",16.3213956,-91.5431392
CSIST000140,"Perif. Ote. Nte. S/N, Linda Vista, 29950 Ocosingo, Chis., Mexico",16.915713,-92.0980694
CSIMO002784,"8a. Av. Sur Oriente, Betania, 29950 Ocosingo, Chis., Mexico",16.9012102,-92.0869873
GRSDN000014,"Av. Adolfo Ruiz Cortinez S/N, Alta Progreso, 39610 Acapulco de Juárez, Gro., Mexico",16.8742826,-99.8842365
TSSDN000014,"Hospital Militar Regional, Venustiano Carranza, Zona Centro, 89000 Tampico, Tamps., Mexico",22.222477,-97.86212689999999
HGSSA001795,"Juventino Rosas N/A, El Cerrito, 42200 Jacala, Hgo., Mexico",21.0103804,-99.1946742
PLSSA017134,"Calle 4 Sur 107, Libertad, 72130 Puebla, Pue., Mexico",19.0685931,-98.23334249999999
PLSSA009241,"De La Pedrera 2929, Plaza Pedrera, Puebla, Pue., Mexico",19.0733712,-98.20570099999999
PLSSA009223,"Blvd. Valsequillo, San Francisco Totimehuacan, Puebla, Pue., Mexico",18.9612397,-98.1705946
PLSSA009214,"Carr Federal a Atlixco 7545, Santa Cruz Guadalupe, 72190 Puebla, Pue., Mexico",19.0698771,-98.24741019999999
PLSSA006043,"Blvd. Xonacatepec 15, San Miguel Xonacatepec, 72229 Santa María Xonacatepec, Pue., Mexico",19.0796469,-98.1097939
VZIMO005004,"J Ma Morelos, Centro, Barrio de Guadalupe, 95000 Zongolica, Ver., Mexico",18.6647926,-96.9960557
ZSIMO001404,"Gutiérrez del Águila Sn, Nueva, 99500 Villanueva, Zac., Mexico",22.3615895,-102.8874401
NTIMO000705,"Durango 4 sancayetano, Vivero, 63511 Tepic, Nay., Mexico",21.4497555,-104.8127572
NTSSA015425,"Calle Jose Maria Morelos 2, Universidad, 63590 Puente de Camotlán, Nay., Mexico",21.6977777,-104.0851261
TSIST000170,"Fovissste, 88970 Cd Río Bravo, Tamps., Mexico",25.9785887,-98.08195169999999
SPSSA002992,"La Paz, Prod Betania, 78700 Matehuala, S.L.P., Mexico",23.6692239,-100.6534197
SLSSA002573,"Valle del Carrizo, Valle Bonito, 81234 Los Mochis, Sin., Mexico",25.8067979,-109.0214949
SLSSA000963,"Blvd. 20 de Noviembre 1, Centro, 81700 Choix, Sin., Mexico",26.7128113,-108.3236144
PLSSA017065,"Rio, San Bernardo 408, Sanctorum, 72730 Sanctorum, Puebla, Mexico",19.1080036,-98.2546706
PLSSA006060,"Blvd. Xonacatepec 15, San Miguel Xonacatepec, 72229 Santa María Xonacatepec, Pue., Mexico",19.0796469,-98.1097939
OCSSA019873,"Carretera Transistmica no. 10 km. 5, Col. Granadillo, 70613 Salina Cruz, Oax., Mexico",16.2308008,-95.20995599999999
OCSSA018473,"Universitario, 4ta de Sta Cruz, Tehuantepec, Oax., Mexico",16.2913194,-95.2332168
OCSSA021256,"Raúl González S/N, Jardines, 71985 Puerto Escondido, Oax., Mexico",15.8801409,-97.08908880000001
OCSSA003826,"San Pedro Tapanatepec, Oaxaca, Mexico",16.3693859,-94.1944784
OCIMO000475,"Tierra y Libertad Norte 202, Juarez Nte., 70300 Matías Romero Avendaño, Oax., Mexico",16.8773263,-95.0345823
OCSSA002320,"Cinco Señores S/N, Centro, 70215 María Lombardo de Caso, Oax., Mexico",17.4459777,-95.4311001
CCSDN000046,"Campeche, Mexico",19.8301251,-90.5349087
CCSSA017670,"Las Flores, 24097 Campeche, Camp., Mexico",19.815024,-90.5238246
CCSSA000544,"Champotón, Kala I, Kalá, 24085 Campeche, Camp., Mexico",19.8411579,-90.4905677
CCSSA001594,"Av Manuel Crecencio Garcia Rejon, Tamarindo, 24600 Hopelchén, Camp., Mexico",19.7543978,-89.8475077
CCIMO000232,"Calle 29, San Francisco, 24800 Hecelchakán, Camp., Mexico",20.171654,-90.14021190000001
CCSSA017403,"Calle 7 96-100, San Isidro, 24902 Calkiní, Camp., Mexico",20.3775902,-90.047404
CSSME000100,"Tapachula, Chis., Mexico",14.9055567,-92.26341359999999
CSIST000210,"Av. Tuxtepec y Oaxaca s/n, Francisco Villa, Guadalupe, 30740 Tapachula de Córdova y Ordoñez, Chis., Mexico",14.8994308,-92.24935049999999
CSSSA002611,"Carretera Huixtla-Motozintla Km, Col Revolucionaria, 30640 Huixtla, Chis., Mexico",15.1459758,-92.4573192
CSIMO002125,"Av. Francisco Sarabia Sn, Barrio Malucal, 30560 Mapastepec, Chis., Mexico",15.4507563,-92.8891652
GTSSA017443,"Lomas del Pedregal, 38800 Moroleón, Gto., Mexico",20.138007,-101.2230871
CHIST000095,"Francisco Miranda 8, Las Americas, 33890 Hidalgo del Parral, Chih., Mexico",26.9222297,-105.6659317
HGSSA003941,"Autopista México - Pachuca Km 625, 43870 San Miguel Eyacalco, Hgo., Mexico",19.9006805,-98.9097747
CSSSA007074,"27 de Septiembre S/N, Calle FCO. Javier Mina, Barrio de las Flores, Las Flores, 30500 Tonalá, Chis., Mexico",16.0897799,-93.7448344
CSSSA000453,"Boulevard Francisco Sarabia S/N, Nueva Esperanza, Buenos Aires II, 30450 Arriaga, Chis., Mexico",16.2415018,-93.8874699
MSSDN000014,"Avenida Domingo Diez s/n, Zona Militar, 62250 Cuernavaca, Mor., Mexico",18.9614606,-99.23886189999999
TCSSA001040,"Gral. J. Domingo Ramírez Garrido 3, Cuadrante II, Atasta de Serra, 86100 Villahermosa, Tab., Mexico",17.9786931,-92.9522267
VZIMS000680,"Minatitlán, Ver., Mexico",17.9939225,-94.5466067
JCSSA001261,"López Mateos 12, 48970 Cihuatlán, Jal., Mexico",19.2381152,-104.5677442
SLSSA002136,"Lic. Benito Juárez 91, Sinaloa de Leyva, Sin., Mexico",25.8166481,-108.2297922
QRSSA000460,"Av 3 202, Centro, 77930 Bacalar, Q.R., Mexico",18.6792523,-88.38832239999999
SRSSA000562,"Fovissste 2, 85140 Cd Obregón, Son., Mexico",27.4835659,-109.9550358
CHSSA000372,"Pablo Ghinter Y, Manuel Doblado S/n, Árbol Grande, 36700 Cd Camargo, Chih., Mexico",27.6806493,-105.1647388
CSIMO002924,"La Pista II, Benemérito de las Américas, Chis., Mexico",16.5169397,-90.65364559999999
CSSSA019510,"3ra Avenida Sur Ote. Poniente, Barrio, San Juan, 29960 Palenque, Chis., Mexico",17.5063883,-91.9845162
CSSSA004595,"Benito Juárez, Nandiume, 29960 Palenque, Chis., Mexico",17.5077443,-91.98843959999999
CSSSA009232,"Hospital, Yajalón, Chis., Mexico",17.1715691,-92.33603029999999
OCSSA005383,"Calle 2 Norte SN, La Banda, 71600 Pinotepa Nacional, Oax., Mexico",16.3471949,-98.04839799999999
OCSSA020445,"Hidalgo s/n, 71960 Santos Reyes Nopala, Oax., Mexico",16.106607,-97.1442829
OCSSA020030,"Calle Tercera Pte., Juárez, 71984 Puerto Escondido, Oax., Mexico",15.8633458,-97.0658461
OCSSA021133,"Centro de la Población, 70980 Santa María Huatulco, Oax., Mexico",15.8347182,-96.3206134
OCIMO003992,"Del Imss, 5ta, Santiago Jamiltepec, Oax., Mexico",16.2891018,-97.82576379999999
OCSSA003715,"LAZARO CARDENAS #1 SECCION, 1A, 1ra, 70900 San Pedro Pochutla, Oax., Mexico",15.7409499,-96.469141
OCSSA004152,"Santa Catarina Juquila, Oaxaca, Mexico",16.230699,-97.289039
HGSSA015520,"Carretera Mexico - Tampico Km 210, Huejutla de Reyes, 43000 Huejutla, Hgo., Mexico",21.1048191,-98.4242065
HGSSA000511,"Luis Pasteur 265, Valle Verde, 43060 Atlapexco, Hgo., Mexico",21.02126,-98.3484936
PLSSA008281,"La Concordia, Campo Deportivo, 73680 Zacapoaxtla, Pue., Mexico",19.8754627,-97.58660739999999
PLIMO003450,"Puebla, Mexico",20.0301802,-97.6535289
TSSMA000015,"Tenap N/A, Jardín, 87330 Heroica Matamoros, Tamps., Mexico",25.8938903,-97.49865589999999
YNIMO000446,"Calle 64 SN, San Esteban, 97880 Oxkutzcab, Yuc., Mexico",20.306447,-89.42777889999999
CSSSA009500,"Calle 13a. Pte. 3, Almacenes, 30470 Villaflores, Chis., Mexico",16.2264624,-93.27519570000001
MNSSA003735,"San Francisco Uruapan, 60157 Uruapan, Mich., Mexico",19.3906745,-102.0225567
CSSSA018875,"Avenida Cuarto Sur SN, Centro, 30475 Villaflores, Chis., Mexico",16.232572,-93.26572600000002
CHIST000112,"Av. Yepomera 10160, Hacienda de Las Torres, Universidad, 32575 Cd Juárez, Chih., Mexico",31.5942999,-106.3988067
CHSDN000031,"Regimiento de Caballería, 12 de Julio, 32674 Cd Juárez, Chih., Mexico",31.6439858,-106.4552388
GTSSA017530,"Av. Ingeniero Javier Barros Sierra No. 300, Villa de los Arcos, 38096 Celaya, Gto., Mexico",20.4915176,-100.8356229
JCSSA005461,"47200, Alfonso Reyes 28, Teocaltiche, Jalisco, Mexico",21.4195434,-102.5688016
PLIMO002803,"Carretera, Mexico - Tuxpan Km. 143, Gran Canal, 73090 Villa Ávila Camacho, Pue., Mexico",20.3916719,-97.8789748
JCSSA001990,"Allende A, Alto, 47270 Encarnación de Díaz, Jal., Mexico",21.5324518,-102.2396277
PLSSA015032,"La Cumbre, 73173 Huauchinango, Pue., Mexico",20.1746442,-98.0450951
OCIMO001315,"Carretera Temaxcalapa Km 1, 5, San Ildefonso Villa Alta, S/N, 68800 San Ildefonso Villa Alta, Oaxaca, Mexico",17.3356147,-96.1451259
OCSSA000594,"Camino a la Universidad S/N, 68725 Ixtlán de Juárez, Oax., Mexico",17.3181557,-96.4835597
OCSSA000384,"Carretera Federal Libre 190 Tramo Huajuapan 69 Kilometro 42, Agua Azufrada, 69510 Villa de Tamazulápam del Progreso, Oax., Mexico",17.6701505,-97.5655943
OCSSA020025,"Carretera Federal 175, 68845 San Juan Bautista Valle Nacional, Oax., Mexico",17.762482,-96.31359189999999
OCSSA019844,"68400, México 16, La Escobeta, 68400 Loma Bonita, Oax., Mexico",18.1092067,-95.8791686
OCSSA020100,"Prol. de Camposanto 119 Barrio, Callejon San Antonio, 7ª Sección, 68270 Tlalixtac de Cabrera, Oax., Mexico",17.0864156,-96.6545412
PLIMO000633,"Calle 11 Nte. 17, Linda Vista, 74730 Chiautla de Tapia, Pue., Mexico",18.3040434,-98.6097094
BCSSA001765,"U.A.B.C., Carretera Ensenada-Tijuana No. 3917, Fraccionamiento Playitas, U.A.B.C., 22860 Ensenada, B.C., Mexico",31.8632073,-116.6681353
BCSDN000012,"Militar, 21180 Mexicali, B.C., Mexico",32.6400973,-115.5042468
BCSSA001753,"Baja California, Mexico",30.8406338,-115.2837585
BCSSA001741,"Av Claridad, Plutarco Elías Calles, 21376 Mexicali, B.C., Mexico",32.6261596,-115.3769531
SPSSA003552,"Tamazunchale, San Luis Potosi, Mexico",21.2520532,-98.7782113
VZSSA008302,"Colón Poniente 320, Centro, 94300 Orizaba, Ver., Mexico",18.846251,-97.1086421
SPSSA017132,"Pueblo Nuevo, 79207 Tamuín, S.L.P., Mexico",22.0145176,-98.78902459999999
ZSIMO000050,"Carretera Concepcion Del Oro-Saltillo Km 2.5, Imss, Centro, 98200 Concepción del Oro, Zac., Mexico",24.6123874,-101.4200048
SLSSA001873,"20 de Noviembre N/A, Genaro Estrada, 82800 Rosario, Sin., Mexico",22.9948177,-105.8565351
SLSSA000473,"Mazatlán Durango N/A, 20 de Enero, 82600 Concordia, Sin., Mexico",23.285357,-106.0668925
SLIMO000733,"Leandro Valle 616, Villa Unión, 82214 Villa Unión, Sin., Mexico",23.1891687,-106.2141913
CLIST000111,"27846, De Los Granados 2, La Quinta, 27847 San Pedro, Coah., Mexico",25.7535751,-102.9963025
SLSDN000016,"Proyecto s/n, Rincón de Urias, 82060 Mazatlán, Sin., Mexico",23.2383972,-106.3700001
CCSSA017682,"Licenciado Carlos Salinas de Gortari, Lic Carlos Salinas de Gortari, 24350 Escárcega, Camp., Mexico",18.6189581,-90.7443268
CCSSA001116,"5, Calle Chicaná, Unidad y Trabajo, 24088 Campeche, Camp., Mexico",18.5023667,-89.3966633
CCSSA001220,"Independencia, 24330 Candelaria, Camp., Mexico",18.18531,-91.0369075
CSSSA019954,"Libramiento Norte & Boulevard Centenario del Ejercito Mexicano S/N, Las Torres, 29045 Tuxtla Gutiérrez, Chis., Mexico",16.7490868,-93.0733045
CSSSA019534,"Tuxtla Gutiérrez, Chis., Mexico",16.7516009,-93.1029939
CSSSA009471,"Carretera Tuxtla - Chicoasen Kilómetro 3.5, CFE, 29025 Tuxtla Gutiérrez, Chiapas, Mexico",16.7552753,-93.0888186
CSSME000066,"Zona Sin Asignación de Nombre de Col 24, Tuxtla Gutiérrez, Chis., Mexico",16.7641525,-93.09515119999999
CSSDN000013,"Blvd. Ángel Albino Corzo S/N, Bienestar Soc, 29076 Tuxtla Gutiérrez, Chis., Mexico",16.7489967,-93.0953365
CSIMO003081,"5a. Sur Pte. s/n, San Antonio, 29140 Ocozocoautla de Espinosa, Chis., Mexico",16.755152,-93.3801658
CHSSA000664,"Av. Prolongación Teófilo Borunda Número 510, Colonia, El Bajo, 31200 Chihuahua, Chih., Mexico",28.6493104,-106.0699118
QTSSA002896,"Avenida Vicente Guerrero 1918 Sector, Juárez, 88209 Nuevo Laredo, Tamps., Mexico",27.4825309,-99.50777550000001
HGSSA015561,"Los Mirasoles S/N, Lindavista, 43420 Huehuetla, Hgo., Mexico",20.4616204,-98.0688203
CHIST000025,"Fovissste, Burócrata, 31560 Cd Cuauhtémoc, Chih., Mexico",28.4156218,-106.8414868
MNIMO000425,"Francisco J. Mujica s/n, Centro, 60840 Coalcomán de Vázquez Pallares, Mich., Mexico",18.7731112,-103.1668299
MNSSA002142,"Lázaro Cárdenas Norte 7, Centro, 61760 Nueva Italia, Mich., Mexico",19.0253866,-102.0929715
CLIMO000561,"Prolongación Hidalgo 690, Zona Centro, 25500 San Buenaventura, Coah., Mexico",27.0484838,-101.5509994
SPSSA003535,"El Refugio, S.L.P., Mexico",21.3347219,-98.75833300000001
SPSSA003511,"Av. Benito Juárez No. 1702, Industrias, 78395 San Luis, S.L.P., Mexico",22.1318645,-100.929734
BCIMS000443,"Primera 500 Maclovio Herrera, 21482 Tecate, B.C., Mexico",32.5454193,-116.6314628
CLIST000065,"Av. Roble 801, Fraccionamiento La Salle, 25720 Monclova, Coah., Mexico",26.928442,-101.4212189
HGSSA002425,"Pachuca-tulancingo 101, Nueva Francisco I Madero, La Hacienda, 42070 Pachuca de Soto, Hgo., Mexico",20.1139034,-98.72278589999999
SPSDN000015,"Coronel Ontañón, San Sebastian, Barrio de San Sebastian, 78390 San Luis, S.L.P., Mexico",22.1417278,-100.9709553
CSIMO000170,"Av. Cuarta Ote. Sur, Altamirano, Chis., Mexico",16.7217744,-92.0429474
CSSSA001030,"Novena Calle Sur Oriente 11 Barrio, San Sebastián, 30029 Comitán de Domínguez, Chis., Mexico",16.2456404,-92.1295825
VZIMO006153,"Plan de Arroyos, Ver., Mexico",19.8988837,-97.1058259
SLSSA017570,"Tomás Urbina 1088, San Ignacio, Sin., Mexico",23.9446666,-106.4232292
SLSSA000572,"Cosalá, 80700 Cosalá, Sinaloa, Mexico",24.4102597,-106.69126
CSSSA018776,"Los Sabinos, 30039 Comitán de Domínguez, Chis., Mexico",16.2075879,-92.10693649999999
CLIST000094,"Issste, Piedras Negras, Coah., Mexico",28.6865195,-100.5415654
TSIMO001250,"Av Hidalgo Sur 1126, Zona Centro, 88400 Cd Gustavo Díaz Ordaz, Tamps., Mexico",26.2219827,-98.5913089
SLSSA000193,"Gabriel Leyva Solano & Javier Mina, Angostura, Sin., Mexico",25.3682517,-108.1565192
SLSSA001716,"Obregon E Hidalgo 4, Centro, 80800 Mocorito, Sin., Mexico",25.4817959,-107.9243201
CSSSA009466,"Carretera Pichucalco- Chiapas Kilómetro 1, Centro, 29520 Pichucalco, Chis., Mexico",17.5064345,-93.1249259
CSSSA009186,"Zona VI Luis Donaldo Colosio, Zona VI, 29500 Reforma, Chis., Mexico",17.8533922,-93.1571881
CSIMO000433,"Callejon El Naranjo N/A, Morelos, 29770 Bochil, Chis., Mexico",16.9952989,-92.8946749
ZSIMO000914,"Carretera Fresnillo Torreon Km 57.3 S/N Colonia, 98400 Río Grande, Zac., Mexico",23.808949,-103.0223393
DGSSA000191,"Blvd. José María Patoni S/N, El Ciprés, 34206 Durango, Dgo., Mexico",24.0563788,-104.6414429
GTSSA017525,"Blvd. Juan Alonso de Torres Pte. 4725, 37675 San José del Potrero, Gto., Mexico",21.1262742,-101.5968049
GTSSA002096,"De La Juventud 16, Jol, 37410 León, Gto., Mexico",21.1229088,-101.7168568
DGIMO001595,"Carretera a Suchil km. 1.5, José Guadalupe Rodríguez, 34890 Vicente Guerrero, Durango, Mexico",23.7193786,-103.9746094
CCIST000033,"Petrolera, 24180 Cd del Carmen, Camp., Mexico",18.6467689,-91.82184559999999
CCIMO000512,"20 de Noviembre, Villahermosa - Chetumal S/N, Col. Carmen, 24350 Escárcega, Camp., Mexico",18.5315172,-91.0851144
CCSSA000363,"Calle 56 S/N, Petrolera, 24180 Cd del Carmen, Camp., Mexico",18.6462992,-91.820837
CCSSA001734,"Emiliano Zapata, 24370 Sabancuy, Camp., Mexico",18.9683445,-91.17590159999999
CCSSA001710,"Calle Ignacio Zaragoza 20, Centro, 24200 Palizada, Camp., Mexico",18.2547515,-92.08805339999999
MNSSA000462,"Ignacio López Rayón 300, Cuarto, 60800 Ejido Coahuayana, Mich., Mexico",18.7035598,-103.6634409
SRSSA017666,"Av 38 (Río Suchiate), Calle Río Suchiate, Brisas del Golfo, 83553 Puerto Peñasco, Son., Mexico",31.3413429,-113.5165229
MCSDN000035,"Av. Industria Militar, Gral. Ildefonso Vázquez &, Militar, Miguel Hidalgo, 11200 Ciudad de México, CDMX, Mexico",19.4373309,-99.2158807
ZSSDN000016,"Av. Industria Militar 1057, Lomas de Sotelo, Hipódromo de las Américas, Miguel Hidalgo, 11200 Ciudad de México, CDMX, Mexico",19.4394092,-99.21859820000002
CLIMS000012,"Calle Rayon 580 sur, Centro, Zona Centro, 26200 Cd Acuña, Coah., Mexico",29.3204582,-100.9414711
VZSDN000010,"Calle, José González Herrera Sn, Boticaria, 94297 Veracruz, Ver., Mexico",19.1431503,-96.1270301
CSSSA018764,"Boulevard Javier Lopez Moreno s/n, Barrio de Fatima, 29264 San Cristóbal de las Casas, Chis., Mexico",16.7234373,-92.6525007
CSSSA005773,"Av Insurgentes 24, Sta Lucia, 29250 San Cristóbal de las Casas, Chis., Mexico",16.732905,-92.63691720000001
CSIMO003863,"Carretera Panamericana km. 1169, Barrio de Fatima, 29264 San Cristóbal de las Casas, Chis., Mexico",16.7321011,-92.6547753
CHSSA001796,"Rio de Janeiro 915, Panamericana, 31210 Chihuahua, Chih., Mexico",28.6583329,-106.1085017
CHSSA018012,"Av Vicente Guerrero Esquina con, Arizona S/N, Col Los Parques, 32440 Cd Juárez, Chih., Mexico",31.7343278,-106.4063081
YNSSA001866,"C. 60 Nte. #299-E Ex-Cordemex, Zona Industrial, Revolucion, 97118 Mérida, Yuc., Mexico",21.0329982,-89.62985110000001
YNSDN000084,"Yucatan, Mexico",20.7098786,-89.0943377
YNIST000170,"Calle 7 #240-X 34, Pensiones, 97219 Mérida, Yuc., Mexico",20.9953867,-89.6400683
ZSIST000032,"Avenida de Sonora, 501, Tecnologica, 99020 Fresnillo, Zac., Mexico",23.1826185,-102.8779633
YNIMO000311,"Calle 11, Dzilam de Bravo, Yuc., Mexico",21.3918955,-88.89735160000001
YNIMO000376,"Calle 21, Centro, 97800 Maxcanú, Yuc., Mexico",20.5839932,-89.997489
NLIST000093,"Constitución 1500, Obispado, 64530 Monterrey, N.L., Mexico",25.6689571,-100.3372616
MNSSA001862,"Guillermo Rocket 250, Pob. Ocolusen, 58295 Morelia, Mich., Mexico",19.6924935,-101.1544543
VZIMO000862,"Fortin - Huatusco Kilómetro 22, Coscomatepec de Bravo, Centro, 94140 Coscomatepec de Bravo, Ver., Mexico",19.0691331,-97.0443167
VZIMS000296,"Av 11 10, Centro, 94500 Córdoba, Ver., Mexico",18.8912876,-96.93856339999999
SPSSA003576,"Plaza Principal, Amado Nervo s/n, 79860 Coxcatlán, S.L.P., Mexico",21.5410007,-98.904653
NTSSA000013,"Prolongacion Morelos N/A, Arboledas San Carlos, Centro, 63430 Acaponeta, Nay., Mexico",22.489771,-105.3685
NTSSA000800,"Prolongacion Queretaro Sur 230, Insurgentes, 63630 Rosamorada, Nay., Mexico",22.1153289,-105.2096651
BCSDN000024,"El Cipres, 22785 Ensenada, B.C., Mexico",31.8070571,-116.598499
TSIMO000796,"Antonio Caso S/n, 20 de Noviembre, 87670 Soto la Marina, Tamps., Mexico",23.7746892,-98.2040067
DGIMO001093,"Panamericana 162-Km 160, Industrial, 35760 Rodeo, Dgo., Mexico",25.1695392,-104.5536521
SRSSA006285,"parque tamosura, Cananea, Son., Mexico",30.9981014,-110.2538404
TSIMO000661,"San Carlos, Tamps., Mexico",24.5834867,-98.9306675
HGSSA000156,"Carlos Mayorga 55, Chapultepec, 42500 Actopan, Hgo., Mexico",20.262735,-98.939736
HGSSA002162,"3000; 42700, Mixquiahuala, Artículo 123, Pachuca de Soto, Hgo., Mexico",20.1890754,-99.2248004
SPSSA000356,"Carretera Mexico-Laredo Sur Esq Angel Oliva N/A, Lomas de Oxitipia, 79090 Cd Valles, S.L.P., Mexico",21.9483396,-98.9945233
SPSSA003564,"San Luis Potosí, San Luis Potosi, Mexico",22.1564699,-100.9855409
DFIMS000172,"1a. Cerrada de Jesús del Monte s/n, Jesús del Monte, Cuajimalpa de Morelos, 05260 Cuajimalpa, CDMX, Mexico",19.365265,-99.293071
DFSDN000016,"Área Federal Fave Sedena, Iztapalapa, Ciudad de México, CDMX, Mexico",19.3125232,-99.0825253
SPSSA002770,"Privada S/N, Col., Paciencia, Col. 18 de Marzo, 79160 Ebano, S.L.P., Mexico",22.2148197,-98.37886759999999
JCSSA008075,"La estacada - Epenche Chico 10, Jalisco, Mexico",19.9364051,-103.0221472
MNSSA016550,"Pomaro, Maruata, Mich., Mexico",18.2735736,-103.348191
MNSSA000310,"Dr Miguel Silva 2, Centro, 60920 Arteaga, Mich., Mexico",18.3571489,-102.2892544
TSIMS000310,"Blvd. Miguel Hidalgo 1540, Col del Valle, 88620 Reynosa, Tamps., Mexico",26.0819841,-98.3023269
SRSDN000192,"Sonora, Mexico",29.2972247,-110.3308814
SRSDN000011,"Boulevard Valentín Gómez Farías, Zona Militar, 83145 Hermosillo, Son., Mexico",29.1148623,-110.948542
OCSSA019132,"Santiago Tamazola, Oaxaca, Mexico",17.6691752,-98.22101889999999
CSIMO002620,"Cuarta Avenida Nte. 725, Emiliano Zapata, 30900 Motozintla, Chis., Mexico",15.3684895,-92.2442444
OCIMO004050,"De Matamoros 400, Santiago Juxtlahuaca, 69700 Santiago Juxtlahuaca, Oax., Mexico",17.3321464,-98.0119012
OCSSA000121,"5 de Febrero, Chocano, 69600 Asunción Nochixtlán, Oax., Mexico",17.4633724,-97.2261069
